{"type":"FeatureCollection","features":[{"type":"Feature","geometry":{"type":"Point","coordinates":[-73.9907463,40.5998769]},"properties":{"id":"85477","name":"Health Essential Association, CPMM","address":"2336 86th St","zipcode":"11214","notes":"- Available for people in the area\n","website":"https://www.facebook.com/pg/Health-Essential-Association-191015237630093/posts/","lat":40.5998769,"lng":-73.9907463,"status":"open","hours":"Th 10:30AM-12:00PM \n","city":"Brooklyn","state":"NY","trackedBy":["SM"]}},{"type":"Feature","geometry":{"type":"Point","coordinates":[-73.95135739999999,40.598074]},"properties":{"id":"85488","name":"Public Health Solutions","address":"2600 Ocean Ave","zipcode":"11229","notes":"\n","website":"https://www.healthsolutions.org/community-work/food-nutrition/neighborhood-wic/","lat":40.598074,"lng":-73.95135739999999,"status":"closed","hours":"Mo 10:00AM-05:00PM\nWe,Th 09:00AM-04:00PM\n","city":"Brooklyn","state":"NY","trackedBy":["SM"]}},{"type":"Feature","geometry":{"type":"Point","coordinates":[-73.9060831,40.6610816]},"properties":{"id":"85492","name":"Salvation Army, Brownsville Corps - Food Pantry","address":"280 Riverdale Ave","zipcode":"11212","notes":"-  Must be registered. \n- Pink, orange, green, and yellow cards are given out to the community. Each card has a specific date of when to pick up food each month (once a month only). \n    - Can only get a colored card after providing ID\n- Vegetables given out on Fridays to people with surplus cards\n- Please bring your own bags or cart\n","website":"https://www.salvationarmyusa.org/usn/cure-hunger/","lat":40.6610816,"lng":-73.9060831,"status":"open","hours":"Mo,Tu,Th,Fr 08:00AM-06:00PM\nWe 08:00AM-08:00PM\n","city":"Brooklyn","state":"NY","trackedBy":["SM"]}},{"type":"Feature","geometry":{"type":"Point","coordinates":[-73.841939,40.840051]},"properties":{"id":"85513","name":"Family of Christ Food Distribution Program","address":"1448 Ferris Pl","zipcode":"10461","notes":"\n","website":"https://www.familyofchristkingdom.org","lat":40.840051,"lng":-73.841939,"status":"closed","city":"Bronx","state":"NY"}},{"type":"Feature","geometry":{"type":"Point","coordinates":[-73.8887317,40.66727150000001]},"properties":{"id":"81323","name":"Fellowship Missionary Baptist Church","address":"509 Van Siclen Ave","zipcode":"11207","notes":"- Open to all\n- Serves produce only\n","website":"https://www.facebook.com/Fellowship-Missionary-Baptist-Church-117454681605562/","lat":40.66727150000001,"lng":-73.8887317,"status":"open","hours":"Tu 10:00AM-12:30PM \n","city":"Brooklyn","state":"NY","trackedBy":["SM"]}},{"type":"Feature","geometry":{"type":"Point","coordinates":[-73.81879,40.758045]},"properties":{"id":"85436","name":"YWCA Queens","address":"42-07 Parson Blvd","zipcode":"11355","notes":"- Call listed number on Thursday to make an appointment for the following Wednesday\n- ID required for first time\n","website":"http://ywcaqueens.org","lat":40.758045,"lng":-73.81879,"status":"open","hours":"Tu 11:00AM-03:00PM\n","city":"Queens","state":"NY","trackedBy":["SM"]}},{"type":"Feature","geometry":{"type":"Point","coordinates":[-73.9817841,40.7183039]},"properties":{"id":"85434","name":"Grand Street Settlement - Lower East Side","address":"80 Pitt St","zipcode":"10002","notes":"\n","website":"https://www.grandsettlement.org","lat":40.7183039,"lng":-73.9817841,"status":"open","hours":"Mo-Fr 07:00AM-08:00PM\n","city":"New York","state":"NY","trackedBy":["SM"]}},{"type":"Feature","geometry":{"type":"Point","coordinates":[-73.8682597,40.6685172]},"properties":{"id":"85378","name":"River Fund - Mobile Food Pantry, Brooklyn","address":"Corner of Linden Blvd & Crescent St","zipcode":"11208","notes":"- Located in the Louis Pink Houses parking lot (mobile pantries) \n- Bring bags/shopping carts for groceries \n- ID is recommended\n","website":"https://www.river.fund","lat":40.6685172,"lng":-73.8682597,"status":"open","hours":"Tu 08:00AM-10:30AM \"Every other Tuesday\"\n","city":"Brooklyn","state":"NY","trackedBy":["SM"]}}]}