{"type":"FeatureCollection","features":[{"type":"Feature","geometry":{"type":"Point","coordinates":[-73.9203167,40.8217281]},"properties":{"id":"85353","name":"City Harvest Mobile Market, Melrose Houses","address":"286 E 156th St","zipcode":"10451","notes":"- Eligibility requirements: must be resident of the Melrose, Morrisania Air Rights, or Andrew Jackson Houses\n","website":"https://www.cityharvest.org/programs/bronx-mobile-markets/","lat":40.8217281,"lng":-73.9203167,"status":"open","hours":"We,Sa 09:30AM-11:30AM \n","city":"Bronx","state":"NY","trackedBy":["SM"]}},{"type":"Feature","geometry":{"type":"Point","coordinates":[-73.9442895,40.756597]},"properties":{"id":"85354","name":"City Harvest Mobile Market, Queensbridge","address":"40-07 Vernon Blvd, Basketball Court","zipcode":"11101","notes":"- Appointments are preferred, but not required\n- ID is required, but there are no neighborhood restrictions\n- Located in the basketball court directly behind the Jacob A. Riis Neighborhood Settlement House\n- Mostly produce items \n","website":"https://www.cityharvest.org/programs/queens-mobile-markets/","lat":40.756597,"lng":-73.9442895,"status":"closed","hours":"Tu-Fr 09:00AM-03:00PM\nSa 09:00AM-12:00PM\nWe 9:30AM-11:30AM\nSa 09:30AM-11:30AM \n","city":"Queens","state":"NY","trackedBy":["SM"]}},{"type":"Feature","geometry":{"type":"Point","coordinates":[-73.9419183,40.8308796]},"properties":{"id":"85358","name":"City Harvest Mobile Market, Prince Hall Temple","address":"454 W 155th St","zipcode":"10032","notes":"\n","website":"https://www.cityharvest.org/programs/manhattan/","lat":40.8308796,"lng":-73.9419183,"status":"open","hours":"Th 09:30AM-11:30AM \nSa 09:30AM-11:30AM\n","city":"New York","state":"NY","trackedBy":["SM"]}},{"type":"Feature","geometry":{"type":"Point","coordinates":[-73.933889,40.7731213]},"properties":{"id":"85350","name":"City Harvest Mobile Market, Astoria Houses","address":"7-1 Astoria Blvd","zipcode":"11102","notes":"- No ID requirements for first time visitors\n- May be some geographical restrictions, but first-time visitors are welcome\n- Located on the basketball court off of Astoria Boulevard in the Astoria Houses\n- bring shopping cart \n- Mostly produce items \n","website":"https://www.cityharvest.org/programs/queens-mobile-markets/","lat":40.7731213,"lng":-73.933889,"status":"open","hours":"Th 09:30AM-11:30AM \nSa 09:30AM-11:30AM \n","city":"Queens","state":"NY","trackedBy":["SM"]}},{"type":"Feature","geometry":{"type":"Point","coordinates":[-74.1628204,40.6328169]},"properties":{"id":"85352","name":"City Harvest Mobile Market, Mariner's Harbor","address":"22 Roxbury St","zipcode":"10303","notes":"\n","website":"https://www.cityharvest.org","lat":40.6328169,"lng":-74.1628204,"status":"open","hours":"Th 10:00AM-12:00PM \"Every other Thursday\"\n","city":"Staten Island","state":"NY","trackedBy":["SM"]}},{"type":"Feature","geometry":{"type":"Point","coordinates":[-73.9262813,40.8643423]},"properties":{"id":"85357","name":"City Harvest Mobile Market, Washington Heights/Inwood","address":"Nagle Ave & 10th Ave on Dyckman St","zipcode":"10034","notes":"- Requirements: Resident of Manhattan\n- The Washington Heights/Inwood Mobile Market is held between Nagle Avenue and 10th Avenue on Dyckman Street\n- Arrive early for the best chance of receiving food\n- Usually fresh produce\n","website":"https://www.cityharvest.org/programs/manhattan/","lat":40.8643423,"lng":-73.9262813,"status":"open","hours":"We,Sa 09:30AM-11:30PM \n","city":"New York","state":"NY","trackedBy":["SM"]}},{"type":"Feature","geometry":{"type":"Point","coordinates":[-74.0805633,40.6221226]},"properties":{"id":"85356","name":"City Harvest Mobile Market, Stapleton Houses","address":"75 Hill St","zipcode":"10304","notes":"- Go there early to get a good spot on the line\n- Open to anyone within Staten Island\n- ID is strongly encouraged\n- Available Fresh Produce, but nothing specifically halal or kosher\n","website":"https://www.cityharvest.org","lat":40.6221226,"lng":-74.0805633,"status":"open","hours":"Tu 09:30AM-11:30AM \"First Tuesday of the month\"\nSa 09:30AM-11:30AM \"Third Saturday of the month\"\n","city":"Staten Island","state":"NY","trackedBy":["SM","Plentiful"]}},{"type":"Feature","geometry":{"type":"Point","coordinates":[-73.9450062,40.6962225]},"properties":{"id":"85351","name":"City Harvest Mobile Market, Bed-Stuy","address":"921 Myrtle Ave","zipcode":"11206","notes":"- Pantry held at the Handball Court of the Tompkins Houses on Myrtle Ave (between Throop and Tompkins Avenues)\n- must be a Brooklyn resident to be eligible to participate\n","website":"https://www.cityharvest.org/","lat":40.6962225,"lng":-73.9450062,"status":"open","hours":"We,Sa 09:30AM-11:30PM\n","city":"Brooklyn","state":"NY","trackedBy":["SM","Plentiful"]}},{"type":"Feature","geometry":{"type":"Point","coordinates":[-73.9097575,40.8151385]},"properties":{"id":"85355","name":"City Harvest Mobile Market, St. Mary's Park","address":"595 Trinity Ave","zipcode":"10455","notes":"- The St. Maryâ€™s Mobile Markets are held in the parking lot adjacent to 595 Trinity Avenue\n","website":"https://www.cityharvest.org/programs/bronx-mobile-markets/","lat":40.8151385,"lng":-73.9097575,"status":"open","hours":"Tu 09:30AM-11:30AM\nSa 09:30AM-11:30AM \n","city":"Bronx","state":"NY","trackedBy":["SM"]}}]}