{"type":"FeatureCollection","features":[{"type":"Feature","geometry":{"type":"Point","coordinates":[-73.994232,40.757595]},"properties":{"name":"The Dwelling Place of NY","address":"409 W 40th St","zip":"10018","status":"open","city":"New York","state":"NY","hours":"2023-05-22 03:30PM-08:00PM\n2023-05-29 03:30PM-08:00PM\n2023-06-05 03:30PM-08:00PM\n2023-06-12 03:30PM-08:00PM\n2023-06-19 03:30PM-08:00PM\n2023-06-26 03:30PM-08:00PM\n2023-07-03 03:30PM-08:00PM\n2023-07-10 03:30PM-08:00PM\n2023-07-17 03:30PM-08:00PM\n2023-07-24 03:30PM-08:00PM\n2023-07-31 03:30PM-08:00PM\n2023-08-07 03:30PM-08:00PM\n2023-08-14 03:30PM-08:00PM","notes":"- Open on Wednesdays at 3:30PM until food runs out\n- Fresh produce only"}},{"type":"Feature","geometry":{"type":"Point","coordinates":[-73.95363,40.8128]},"properties":{"name":"Missionaries of Charity - Harlem","address":"406 W 127th St","zip":"10027","status":"open","city":"New York","state":"NY","hours":"Su-We,Fr,Sa 09:30AM","notes":"- Open to everyone"}},{"type":"Feature","geometry":{"type":"Point","coordinates":[-73.9089172,40.66270153]},"properties":{"name":"Elite Learners, Fuel the Love - Community Kitchen","address":"Rockaway Ave & Livona Ave","zip":"11212","status":"closed","city":"Brooklyn","state":"NY","hours":"Tu 11:00AM-01:00PM","notes":"- Vegetables and Fruits offered \n- Meat only offered during holidays\n- ID required for updating patrons on service changes "}},{"type":"Feature","geometry":{"type":"Point","coordinates":[-73.93568062,40.80270291]},"properties":{"name":"Coalition for the Homeless","address":"E 124th St","zip":"10035","status":"open","city":"New York","state":"NY","hours":"Su-Sa 05:30PM-07:00PM","notes":"- Routes for the mobile soup kitchen can be found at: https://www.coalitionforthehomeless.org/our-programs/food/grand-central-food-program/grand-central-food-program-routes/"}},{"type":"Feature","geometry":{"type":"Point","coordinates":[-74.00254014,40.71629602]},"properties":{"name":"Grand Central Food Program, Chinatown","address":"Lafayette St & Leonard St","zip":"10013","status":"open","city":"New York","state":"NY","hours":"Su-Sa 07:45PM-07:55PM","notes":"- Mobile truck moves through different areas of the city in the evening. To find out when it will visit a neighborhood near you, please check website.\n- Trucks are at each location for about 5-10 minutes."}},{"type":"Feature","geometry":{"type":"Point","coordinates":[-74.080902,40.618507]},"properties":{"name":"Vanderbilt Avenue Moravian Church","address":"285 Vanderbilt Ave","zip":"10304","status":"open","city":"Staten Island","state":"NY","hours":"Su 04:30PM-06:30PM ","notes":"- Open to all\n- Meals served to go"}},{"type":"Feature","geometry":{"type":"Point","coordinates":[-73.90679656,40.81314034]},"properties":{"name":"Acacia Network, Maria Isabel Senior Center - Soup Kitchen","address":"787 E 149 St","zip":"10455","status":"open","city":"Bronx","state":"NY","hours":"","notes":""}},{"type":"Feature","geometry":{"type":"Point","coordinates":[-72.9167574,40.9470593]},"properties":{"name":"Trinity Evangelical Lutheran Church - Soup Kitchen","address":"716 Route 25A","zip":"10304","status":"open","city":"Staten Island","state":"NY","hours":"Th 04:00PM-06:00PM","notes":"- Hot, sit down, indoor meal is on Thursdays "}},{"type":"Feature","geometry":{"type":"Point","coordinates":[-73.9246385,40.6745463]},"properties":{"name":"Church of God in Christ on the Hill - Soup Kitchen","address":"137 Buffalo Ave","zip":"11213","status":"open","city":"Brooklyn","state":"NY","hours":"Fr 12:30PM","notes":""}},{"type":"Feature","geometry":{"type":"Point","coordinates":[-73.997492,40.7553659]},"properties":{"name":"Metropolitan Community Church of New York - Soup Kitchen","address":"446 W 36th St","zip":"10018","status":"open","city":"New York","state":"NY","hours":"Tu-Fr 01:00PM-03:00PM \"Hot Meal Hours\"\nTu 05:00PM-06:00PM \"Community Meal Hours, last Tuesday of the month\"","notes":""}},{"type":"Feature","geometry":{"type":"Point","coordinates":[-73.9812423,40.7774103]},"properties":{"name":"Blessed Sacrament Church - Soup Kitchen","address":"152 W 71st St","zip":"10023","status":"open","city":"New York","state":"NY","hours":"Su 02:00PM","notes":"- Soup kitchen ends when the line ends. "}},{"type":"Feature","geometry":{"type":"Point","coordinates":[-73.9731436,40.7564606]},"properties":{"name":"St. Bartholomew's Community Ministry - Soup Kitchen","address":"108 E 50th St","zip":"10022","status":"open","city":"New York","state":"NY","hours":"Su,Mo,We 07:45AM-08:45AM\nSa 10:00AM-11:00AM\nSu-Sa 05:30PM-06:30PM","notes":"- Do Dontate you need to reach out through their website."}},{"type":"Feature","geometry":{"type":"Point","coordinates":[-73.8688751,40.7614838]},"properties":{"name":"First Baptist Church - Soup Kitchen","address":"100-10 Astoria Blvd","zip":"11369","status":"open","city":"Queens","state":"NY","hours":"We 12:00PM-02:00PM","notes":"- Open to everyone"}},{"type":"Feature","geometry":{"type":"Point","coordinates":[-73.9256947,40.6639419]},"properties":{"name":"Mizpah Assemblies Inc. - Soup Kitchen","address":"69 E 95th St","zip":"11212","status":"open","city":"Brooklyn","state":"NY","hours":"Sa 08:00AM-12:00PM","notes":""}},{"type":"Feature","geometry":{"type":"Point","coordinates":[-73.8326751,40.7581975]},"properties":{"name":"La Jornada, Flushing - Soup Kitchen","address":"133-36 Roosevelt Ave","zip":"11354","status":"closed","city":"Queens","state":"NY","hours":"Fr,Sa 10:00AM-03:00PM","notes":""}},{"type":"Feature","geometry":{"type":"Point","coordinates":[-73.9253918,40.7028088]},"properties":{"name":"St. John's Bread & Life, Maria Hernandez Park - Mobile Soup Kitchen","address":"Knickerbocker Ave & Starr St","zip":"11237","status":"open","city":"Brooklyn","state":"NY","hours":"Mo 11:45AM-12:45PM","notes":""}},{"type":"Feature","geometry":{"type":"Point","coordinates":[-73.8808546,40.6671733]},"properties":{"name":"St. John's Bread & Life, St. Gabriel's Church - Mobile Soup Kitchen","address":"New Lots Ave & Linwood St","zip":"11208","status":"unknown","city":"Brooklyn","state":"NY","hours":"Mo 10:00AM-11:00AM","notes":""}},{"type":"Feature","geometry":{"type":"Point","coordinates":[-73.89749072,40.74883866]},"properties":{"name":"St. John's Bread & Life, Hart Park - Mobile Soup Kitchen","address":"37th Ave","zip":"11377","status":"open","city":"Queens","state":"NY","hours":"Tu 10:00AM-11:00AM","notes":""}},{"type":"Feature","geometry":{"type":"Point","coordinates":[-74.0089394,40.678878]},"properties":{"name":"St. John's Bread & Life, Visitation Church - Mobile Soup Kitchen","address":"98 Richards St","zip":"11231","status":"open","city":"Brooklyn","state":"NY","hours":"Tu 11:45AM-12:45PM","notes":""}},{"type":"Feature","geometry":{"type":"Point","coordinates":[-73.9575883,40.7069143]},"properties":{"name":"St. John's Bread & Life, Williamsburg Public Library - Mobile Soup Kitchen","address":"240 Division Ave & Marcy Ave","zip":"11211","status":"open","city":"Brooklyn","state":"NY","hours":"We 10:00AM-11:00AM","notes":""}},{"type":"Feature","geometry":{"type":"Point","coordinates":[-73.9879464,40.5762644]},"properties":{"name":"St. John's Bread & Life, Coney Island - Mobile Soup Kitchen","address":"Mermaid Ave & W 21st St","zip":"11224","status":"open","city":"Brooklyn","state":"NY","hours":"Th 10:30AM-12:00PM","notes":""}},{"type":"Feature","geometry":{"type":"Point","coordinates":[-73.9943301,40.7572243]},"properties":{"name":"Grand Central Food Program, Port Authority","address":"410 W 40th St","zip":"10018","status":"open","city":"New York","state":"NY","hours":"Su-Sa 07:35PM-07:45PM","notes":"- Mobile truck moves through different areas of the city in the evening. To find out when it will visit a neighborhood near you, please check website.\n- Trucks are at each location for about 5-10 minutes"}},{"type":"Feature","geometry":{"type":"Point","coordinates":[-73.9833886,40.7199797]},"properties":{"name":"Grand Central Food Program, Sunshine Hotel/Bowery Mission","address":"Between Stanton & Rivington","zip":"10002","status":"open","city":"New York","state":"NY","hours":"Su-Sa 08:20PM-08:30PM","notes":"-   Mobile truck moves through different areas of the city in the evening. To find out when it will visit a neighborhood near you, please check website.\n-   Trucks are at each location for about 5-10 minutes."}},{"type":"Feature","geometry":{"type":"Point","coordinates":[-73.9925985,40.7156514]},"properties":{"name":"Grand Central Food Program, Lower East Side Harm Reduction","address":"25 Allen St","zip":"10002","status":"closed","city":"New York","state":"NY","hours":"Su-Sa 07:30PM-07:40PM","notes":"-   Mobile truck moves through different areas of the city in the evening. To find out when it will visit a neighborhood near you, please check website.\n-   Trucks are at each location for about 5-10 minutes"}},{"type":"Feature","geometry":{"type":"Point","coordinates":[-73.9709337,40.7440754]},"properties":{"name":"Grand Central Food Program, 35th St","address":"35th St under FDR Dr","zip":"10016","status":"open","city":"New York","state":"NY","hours":"Su-Sa 07:15PM-07:25PM","notes":"- Mobile truck moves through different areas of the city in the evening. To find out when it will visit a neighborhood near you, please check website.\n- Trucks are at each location for about 5-10 minutes. "}},{"type":"Feature","geometry":{"type":"Point","coordinates":[-73.9416084,40.6744978]},"properties":{"name":"Church of God Seventh Day Pentecostal Church/Manna Ministries - Soup Kitchen","address":"922 St Marks Ave","zip":"11213","status":"open","city":"Brooklyn","state":"NY","hours":"We 05:00PM-07:00PM","notes":""}},{"type":"Feature","geometry":{"type":"Point","coordinates":[-73.9475088,40.6764879]},"properties":{"name":"Hebron SDA French Church - Soup Kitchen","address":"1256 Dean St","zip":"11216","status":"open","city":"Brooklyn","state":"NY","hours":"Su 12:30PM-02:00PM","notes":""}},{"type":"Feature","geometry":{"type":"Point","coordinates":[-73.9910709,40.7579652]},"properties":{"name":"Holy Cross, St. John the Baptist, Crossroads - Soup Kitchen","address":"329 W 42nd St","zip":"10036","status":"open","city":"New York","state":"NY","hours":"Sa 12:00PM-01:00PM","notes":"'- Visitors must live within 15 blocks of the church\n- Must have 2 forms of ID\n- Everyone who wishes to receive food must be registered. Registration occurs during the hours of distribution only. You must bring identification, social benefits card(s), and proof of residence for all the members of your household.\n- Soup kitchen serving grab-and-go meals"}},{"type":"Feature","geometry":{"type":"Point","coordinates":[-74.0165736,40.6462963]},"properties":{"name":"Muslims Giving Back - Soup Kitchen","address":"486 Bay Ridge Ave","zip":"11220","status":"open","city":"Brooklyn","state":"NY","hours":"Mo-Fr 06:00PM-07:00PM","notes":""}},{"type":"Feature","geometry":{"type":"Point","coordinates":[-73.9132482,40.8228824]},"properties":{"name":"Salvation Army, Bronx Citadel - Soup Kitchen","address":"425 E 159th St","zip":"10451","status":"open","city":"Bronx","state":"NY","hours":"Tu,Th 01:00AM-3:00PM","notes":"- Open to everyone"}},{"type":"Feature","geometry":{"type":"Point","coordinates":[-73.794392,40.7069306]},"properties":{"name":"Tabernacle of Prayer for All People/Food Program","address":"90-07 Merrick Blvd","zip":"11432","status":"open","city":"Queens","state":"NY","hours":"Tu 11:30AM-12:30PM\nFr 10:00AM-11:30AM","notes":"- Only allowed to come once a week"}},{"type":"Feature","geometry":{"type":"Point","coordinates":[-73.980189,40.7260344]},"properties":{"name":"Trinity's Services and Food for the Homeless - Soup Kitchen","address":"602 E 9th St","zip":"10009","status":"open","city":"New York","state":"NY","hours":"Mo-Fr 11:00AM-12:00PM ","notes":""}},{"type":"Feature","geometry":{"type":"Point","coordinates":[-73.8143766,40.7349436]},"properties":{"name":"Pomonok - Soup Kitchen","address":"67-09 Kissena Blvd","zip":"11367","status":"open","city":"Queens","state":"NY","hours":"Tu,Th 10:00AM-01:00PM","notes":"- Food Pantry is open Tuesday and  Thursday between 10am and 1pm.\n- soup Kitchen closed \n"}},{"type":"Feature","geometry":{"type":"Point","coordinates":[-73.977654,40.7856481]},"properties":{"name":"Holy Trinity Church - Soup Kitchen","address":"213 W 82nd St","zip":"10024","status":"open","city":"New York","state":"NY","hours":"Su-Sa 08:30AM-09:00AM breakfast \nSa 10:30AM-11:00AM ","notes":"'- Serving grab-and-go breakfast\n- Food donations (perishables and non-perishables) accepted. "}},{"type":"Feature","geometry":{"type":"Point","coordinates":[-73.9549767,40.7292165]},"properties":{"name":"Greenpoint Reformed Church - Soup Kitchen","address":"136 Milton St","zip":"11222","status":"open","city":"Brooklyn","state":"NY","hours":"We 06:00PM-07:00PM","notes":"- Soup kitchen is only serving takeout meals at this time\n- Donations can be made on the website"}},{"type":"Feature","geometry":{"type":"Point","coordinates":[-73.9946946,40.7287795]},"properties":{"name":"Hebrew Union College-Jewish Institute of Religion","address":"1 W 4th St","zip":"10012","status":"open","city":"New York","state":"NY","hours":"Mo 05:00PM-05:30PM","notes":"- Serving bagged lunches and water \n- Can also access soap, toothpaste, toiletries, clothing and socks "}},{"type":"Feature","geometry":{"type":"Point","coordinates":[-74.012936,40.7011133]},"properties":{"name":"Grand Central Food Program, Staten Island Ferry Terminal","address":"4 Whitehall St","zip":"10004","status":"open","city":"New York","state":"NY","hours":"Su-Sa 08:00PM-08:10PM","notes":"- Mobile truck moves through different areas of the city in the evening. To find out when it will visit a neighborhood near you, please check website.\n- Trucks are at each location for about 5-10 minutes. "}},{"type":"Feature","geometry":{"type":"Point","coordinates":[-73.9001118,40.8581476]},"properties":{"name":"Love Gospel Assembly - The Love Kitchen","address":"2315 Grand Concourse","zip":"10458","status":"open","city":"Bronx","state":"NY","hours":"Tu 12:00PM-02:00PM","notes":""}},{"type":"Feature","geometry":{"type":"Point","coordinates":[-73.8580001,40.7281738]},"properties":{"name":"Masbia of Rego Park - Soup Kitchen","address":"98-08 Queens Blvd","zip":"11374","status":"open","city":"Queens","state":"NY","hours":"Su-Th 02:00PM-07:00PM","notes":"- Offers dine-in option as well as dinner to-go"}},{"type":"Feature","geometry":{"type":"Point","coordinates":[-73.990831,40.7487788]},"properties":{"name":"St. Francis of Assisi - Soup Kitchen","address":"139 W 31st St","zip":"10001","status":"open","city":"New York","state":"NY","hours":"Su-Sa 07:00AM-07:30AM","notes":"-   Serves sandwiches and coffee\n-   Line starts around 6:30AM"}},{"type":"Feature","geometry":{"type":"Point","coordinates":[-73.9464067,40.8108787]},"properties":{"name":"Metropolitan Baptist Church - Soup Kitchen","address":"151 W 128th St","zip":"10027","status":"closed","city":"New York","state":"NY","hours":"Mo-Th 10:00AM-02:00PM","notes":"- Temporarily closed until further notice"}},{"type":"Feature","geometry":{"type":"Point","coordinates":[-73.89728,40.70317]},"properties":{"name":"Hungry Monks - Community Meals Program","address":"867 Cypress Ave","zip":"11385","status":"open","city":"Queens","state":"NY","hours":"Tu,Sa 09:00AM-12:00PM","notes":""}},{"type":"Feature","geometry":{"type":"Point","coordinates":[-73.9217969,40.8205477]},"properties":{"name":"Greater Universal Baptist Church","address":"253 E 153rd St","zip":"10451","status":"closed","city":"Bronx","state":"NY","hours":"","notes":"- Temporarily closed until further notice"}},{"type":"Feature","geometry":{"type":"Point","coordinates":[-73.9444318,40.8323851]},"properties":{"name":"North Presbyterian Church Luice Monthly Community Meal","address":"525 W 155th St","zip":"10032","status":"open","city":"New York","state":"NY","hours":"Sa 12:00PM-02:00PM ","notes":""}},{"type":"Feature","geometry":{"type":"Point","coordinates":[-73.9799039,40.7247627]},"properties":{"name":"Graffiti Community Ministries - Soup Kitchen","address":"205 E 7th St","zip":"10009","status":"open","city":"New York","state":"NY","hours":"Wednesday 17:30–18:30","notes":"- Free lunches handed out in Tompkins Square Park every Saturday at 1PM, except for the first Saturday of each month\n    - Tompkins Square Park located at Ave B & Tompkins Square, E 7th St, New York, NY 10009"}},{"type":"Feature","geometry":{"type":"Point","coordinates":[-73.9849615,40.7343503]},"properties":{"name":"The Parish of Calvary, St. George's Olmsted Hall","address":"209 E 16th St","zip":"10003","status":"open","city":"New York","state":"NY","hours":"Th 12:00AM-01:00PM","notes":"- Serving bag lunches\n- Enter through the courtyard"}},{"type":"Feature","geometry":{"type":"Point","coordinates":[-73.9495293,40.7783133]},"properties":{"name":"Holy Trinity Neighborhood Center","address":"316 E 88th St","zip":"10128","status":"open","city":"New York","state":"NY","hours":"Sa 05:15PM-06:00PM","notes":"- Anyone is welcome\n- Lines begin at 4:30PM\n- Vegetarian options are offered\n- May or may not have halal depending on time of the month."}},{"type":"Feature","geometry":{"type":"Point","coordinates":[-73.965033,40.7614449]},"properties":{"name":"All Saints Episcopal Church","address":"230 E 60th St","zip":"10022","status":"open","city":"New York","state":"NY","hours":"Sa 04:30PM-05:00PM","notes":"- Bagged lunches to go"}},{"type":"Feature","geometry":{"type":"Point","coordinates":[-73.970543,40.7600669]},"properties":{"name":"Central Synogogue Breakfast Program","address":"123 E 55th St","zip":"10022","status":"open","city":"New York","state":"NY","hours":"Th,Fr 06:00AM-07:30AM","notes":"- There will normally be signs or someone to point you toward the right direction."}},{"type":"Feature","geometry":{"type":"Point","coordinates":[-73.9264985,40.8353888]},"properties":{"name":"Woodycrest United Methodist Church, Bread Basket - Soup Kitchen","address":"89 W 166th St","zip":"10452","status":"open","city":"Bronx","state":"NY","hours":"We 12:00PM-02:00PM","notes":""}},{"type":"Feature","geometry":{"type":"Point","coordinates":[-73.9717539,40.7843278]},"properties":{"name":"St. Matthew's, St. Timothy's Day Care - Soup Kitchen","address":"26 W 84th St","zip":"10024","status":"open","city":"New York","state":"NY","hours":"Su 02:00PM \"From October through June\"","notes":"- Grab-n-go hot meals; pickup outside \n- Vegetarian meal option available"}},{"type":"Feature","geometry":{"type":"Point","coordinates":[-74.1362453,40.6341816]},"properties":{"name":"Meals on Wheels of Staten Island","address":"304 Port Richmond Ave","zip":"10302","status":"open","city":"Staten Island","state":"NY","hours":"Su-Sa 10:00AM-01:30PM","notes":"-   Offers food delivery for seniors age 60+\n-   Call listed number to begin registration process \n-   Offer diabetic, low sodium, low fat, kosher, halal, and pureed meal options\n- Staten Island Only"}},{"type":"Feature","geometry":{"type":"Point","coordinates":[-74.1322339,40.6352159]},"properties":{"name":"Project Hospitality, Faith United Methodist Church - Soup Kitchen","address":"221 Heberton Ave","zip":"10302","status":"open","city":"Staten Island","state":"NY","hours":"Su-Sa 12:00AM-11:45PM \"Open 24/7\"","notes":""}},{"type":"Feature","geometry":{"type":"Point","coordinates":[-73.88315,40.852805]},"properties":{"name":"Sandra's Family Residence","address":"2346 Prospect Ave","zip":"10458","status":"unknown","city":"Bronx","state":"NY","hours":"Mo-We 09:00PM-05:00PM\n","notes":"- Hosts food drives on special occasions"}},{"type":"Feature","geometry":{"type":"Point","coordinates":[-73.901665,40.819559]},"properties":{"name":"New York City Relief, South Bronx - Soup Kitchen","address":"148 St & Brook Ave","zip":"10459","status":"open","city":"Bronx","state":"NY","hours":"Sa 11:00AM-01:00PM","notes":"- This location has: Soup, bread, beverages, socks, hygiene kits, prayer, life care visits & referrals to resources."}},{"type":"Feature","geometry":{"type":"Point","coordinates":[-73.949001,40.791712]},"properties":{"name":"New York City Relief, East Harlem","address":"124 St & Park Ave","zip":"10035","status":"open","city":"New York","state":"NY","hours":"Sa 11:00PM-01:00PM","notes":"- This location has: soup, bread, beverages, socks, hygiene kits"}},{"type":"Feature","geometry":{"type":"Point","coordinates":[-74.000544,40.750253]},"properties":{"name":"New York City Relief, Chelsea Park - Soup Kitchen","address":"28th St between 9 & 10 Ave","zip":"10018","status":"open","city":"New York","state":"NY","hours":"We 11:00AM-01:00PM","notes":"- This location has: soup, bread, beverages, socks, hygiene kits"}},{"type":"Feature","geometry":{"type":"Point","coordinates":[-73.991083,40.735864]},"properties":{"name":"Grand Central Food Program, Union Square","address":"Union Sq","zip":"10003","status":"open","city":"New York","state":"NY","hours":"Su-Sa 08:30PM-08:40PM","notes":"- Mobile truck moves through different areas of the city in the evening. To find out when it will visit a neighborhood near you, please check website.\n- Trucks are at each location for about 5-10 minutes."}},{"type":"Feature","geometry":{"type":"Point","coordinates":[-73.99394,40.75153]},"properties":{"name":"Grand Central Food Program, Penn Station","address":"NE Corner of 34rd St & 8th Ave","zip":"10001","status":"open","city":"New York","state":"NY","hours":"Su-Sa 09:15PM-09:25PM","notes":"-   Mobile truck moves through different areas of the city in the evening. To find out when it will visit a neighborhood near you, please check website.\n-   Truck stops between 33rd and 34th Street\n-   Trucks are at each location for about 5-10 minutes."}},{"type":"Feature","geometry":{"type":"Point","coordinates":[-73.97362,40.76118]},"properties":{"name":"Grand Central Food Program, SONY Building","address":"55th St between Madison & 5th Ave","zip":"10022","status":"open","city":"New York","state":"NY","hours":"Su-Sa 09:30PM-09:40PM","notes":"- Mobile truck moves through different areas of the city in the evening. To find out when it will visit a neighborhood near you, please check website.\n- Trucks are at each location for about 5-10 minutes. "}},{"type":"Feature","geometry":{"type":"Point","coordinates":[-73.9838,40.762011]},"properties":{"name":"Grand Central Food Program, 51st & Broadway","address":"SW Corner of 51st St & Broadway","zip":"10019","status":"open","city":"New York","state":"NY","hours":"Mo-Su 07:00AM-05:00PM","notes":"- Mobile truck moves through different areas of the city in the evening. To find out when it will visit a neighborhood near you, please check website.\n- Trucks are at each location for about 5-10 minutes. "}},{"type":"Feature","geometry":{"type":"Point","coordinates":[-73.982473,40.77984]},"properties":{"name":"Rutgers Thursday Nighters","address":"236 W 73rd St","zip":"10023","status":"open","city":"New York","state":"NY","hours":"Mo-Fr 09:00AM-05:00PM","notes":"- Grab-and-go brown bag meals available to first 70 visitors "}},{"type":"Feature","geometry":{"type":"Point","coordinates":[-73.9842,40.78561]},"properties":{"name":"Grand Central Food Program, 79th St Boat Basin","address":"79th St & West Side Hwy","zip":"10024","status":"open","city":"New York","state":"NY","hours":"Su-Sa 07:55PM-08:10PM","notes":"- Mobile truck moves through different areas of the city in the evening. To find out when it will visit a neighborhood near you, please check website.\n- Trucks are at each location for about 5-10 minutes. "}},{"type":"Feature","geometry":{"type":"Point","coordinates":[-73.977456,40.788908]},"properties":{"name":"Grand Central Food Program, 86th & West End","address":"86th St & West End Ave","zip":"10024","status":"open","city":"New York","state":"NY","hours":"Su-Sa 08:15PM-08:30PM","notes":"- Mobile truck moves through different areas of the city in the evening. To find out when it will visit a neighborhood near you, please check website.\n- Trucks are at each location for about 5-10 minutes."}},{"type":"Feature","geometry":{"type":"Point","coordinates":[-73.962506,40.804169]},"properties":{"name":"Grand Central Food Program, Cathedral of St. John the Divine","address":"112th St & Amsterdam","zip":"10025","status":"open","city":"New York","state":"NY","hours":"Su-Sa 08:30PM-08:40PM","notes":"- Mobile truck moves through different areas of the city in the evening. To find out when it will visit a neighborhood near you, please check website.\n- Trucks are at each location for about 5-10 minutes."}},{"type":"Feature","geometry":{"type":"Point","coordinates":[-73.967392,40.772414]},"properties":{"name":"Grand Central Food Program, Central Park","address":"5th Ave & 72nd St","zip":"10021","status":"open","city":"New York","state":"NY","hours":"Su-Sa 09:15PM-09:20PM","notes":"- Mobile truck moves through different areas of the city in the evening. To find out when it will visit a neighborhood near you, please check website.\n- Trucks are at each location for about 5-10 minutes. "}},{"type":"Feature","geometry":{"type":"Point","coordinates":[-73.937847,40.803567]},"properties":{"name":"Grand Central Food Program, Lexington & 124th","address":"Lexington Ave & 124th St","zip":"10035","status":"open","city":"New York","state":"NY","hours":"Su-Sa 09:00PM-09:10PM","notes":"- Mobile truck moves through different areas of the city in the evening. To find out when it will visit a neighborhood near you, please check website."}},{"type":"Feature","geometry":{"type":"Point","coordinates":[-73.939642,40.815417]},"properties":{"name":"Grand Central Food Program, Harlem Hospital","address":"137th St & Lenox Ave","zip":"10037","status":"open","city":"New York","state":"NY","hours":"Su-Sa 08:45PM-09:00PM","notes":"- Mobile truck moves through different areas of the city in the evening. To find out when it will visit a neighborhood near you, please check website.\n- Trucks are at each location for about 5-10 minutes. "}},{"type":"Feature","geometry":{"type":"Point","coordinates":[-73.905131,40.862958]},"properties":{"name":"Grand Central Food Program, Fordham & University","address":"Fordham Rd & University Ave","zip":"10468","status":"open","city":"Bronx","state":"NY","hours":"Su-Sa 08:45PM-09:00PM","notes":"- Mobile truck moves through different areas of the city in the evening. To find out when it will visit a neighborhood near you, please check website.\n- Trucks are at each location for about 5-10 minutes. "}},{"type":"Feature","geometry":{"type":"Point","coordinates":[-73.891083,40.861739]},"properties":{"name":"Grand Central Food Program, Fordham & Webster","address":"Fordham Rd & Webster Ave","zip":"10458","status":"open","city":"Bronx","state":"NY","hours":"Su-Sa 09:10PM-09:20PM","notes":"- Mobile truck moves through different areas of the city in the evening. To find out when it will visit a neighborhood near you, please check website.\n- Trucks are at each location for about 5-10 minutes. "}},{"type":"Feature","geometry":{"type":"Point","coordinates":[-73.889286,40.816711]},"properties":{"name":"Grand Central Food Program, Lafayette & Manida","address":"NW corner of Lafayette Ave & Manida St","zip":"10474","status":"open","city":"Bronx","state":"NY","hours":"Su-Sa 07:40PM-07:55PM","notes":"- Mobile truck moves through different areas of the city in the evening. To find out when it will visit a neighborhood near you, please check website.\n- Trucks are at each location for about 5-10 minutes. "}},{"type":"Feature","geometry":{"type":"Point","coordinates":[-73.885083,40.812225]},"properties":{"name":"Grand Central Food Program, Randall & Bryant","address":"SW corner of Randall Ave & Bryant Ave","zip":"10474","status":"open","city":"Bronx","state":"NY","hours":"Su-Sa 07:30PM-07:40PM","notes":"- Mobile truck moves through different areas of the city in the evening. To find out when it will visit a neighborhood near you, please check website.\n- Trucks are at each location for about 5-10 minutes."}},{"type":"Feature","geometry":{"type":"Point","coordinates":[-73.918264,40.840342]},"properties":{"name":"Grand Central Food Program, 170th & Jerome","address":"170th St & Jerome Ave","zip":"10452","status":"open","city":"Bronx","state":"NY","hours":"Su-Sa 08:30PM-08:35PM","notes":"- Mobile truck moves through different areas of the city in the evening. To find out when it will visit a neighborhood near you, please check website.\n- Trucks are at each location for about 5-10 minutes. "}},{"type":"Feature","geometry":{"type":"Point","coordinates":[-73.929214,40.832944]},"properties":{"name":"Grand Central Food Program, 164th St. & Ogden","address":"NE corner of 164th St & Ogden Ave ","zip":"10452","status":"open","city":"Bronx","state":"NY","hours":"Su-Sa 08:25PM-08:30PM","notes":"- Mobile truck moves through different areas of the city in the evening. To find out when it will visit a neighborhood near you, please check website.\n- Trucks are at each location for about 5-10 minutes. "}},{"type":"Feature","geometry":{"type":"Point","coordinates":[-73.9244,40.816936]},"properties":{"name":"Grand Central Food Program, Lincoln Hospital","address":"Morris Ave & 148th St","zip":"10451","status":"open","city":"Bronx","state":"NY","hours":"Su-Sa 08:00PM-08:10PM","notes":"- Mobile truck moves through different areas of the city in the evening. To find out when it will visit a neighborhood near you, please check website.\n- Trucks are at each location for about 5-10 minutes. "}},{"type":"Feature","geometry":{"type":"Point","coordinates":[-73.957852,40.779304]},"properties":{"name":"Park Ave Christian Church ","address":"48 E 80th St","zip":"10028","status":"open","city":"New York","state":"NY","hours":"Sa 09:00AM-01:00PM","notes":"- Community lunch hosted at Manhattan Church of Christ"}},{"type":"Feature","geometry":{"type":"Point","coordinates":[-73.981245,40.782664]},"properties":{"name":"West End Collegiate Church","address":"245 W 77th St","zip":"10024","status":"open","city":"New York","state":"NY","hours":"Tu 04:00PM-05:00PM","notes":"'- Food donations: non-perishables preferred (not currently)\n- starts at 4 goes until the food is gone \n- Feeds everyone\n- Take away lunch for now"}},{"type":"Feature","geometry":{"type":"Point","coordinates":[-73.93922,40.80465]},"properties":{"name":"New York City Relief, East Harlem","address":"540 Malcolm X Blvd (Lenox Ave) & 138th St","zip":"10035","status":"open","city":"New York","state":"NY","hours":"Sa 11:00AM-01:00PM","notes":"- This location has: soup, bread, beverages, socks, hygiene kits, prayer, life care visits, and referrals to resources"}},{"type":"Feature","geometry":{"type":"Point","coordinates":[-73.990353,40.724087]},"properties":{"name":"St. Joseph House/Catholic Worker","address":"36 E 1st St","zip":"10003","status":"open","city":"New York","state":"NY","hours":"Mo-Fr 09:30AM-11:00PM","notes":"- Serves soups and sandwiches\n- Clothes are also available"}},{"type":"Feature","geometry":{"type":"Point","coordinates":[-73.987979,40.74224]},"properties":{"name":"Grand Central Food Program, Madison Square Park","address":"5th Ave & 27th St","zip":"10001","status":"open","city":"New York","state":"NY","hours":"Su-Sa 08:45PM-09:00PM ","notes":"-   Mobile truck moves through different areas of the city in the evening. To find out when it will visit a neighborhood near you, please check website.\n-   Trucks are at each location for about 5-10 minutes"}},{"type":"Feature","geometry":{"type":"Point","coordinates":[-74.000462,40.749916]},"properties":{"name":"New York City Relief, Chelsea Park - Mobile Soup Kitchen","address":"28th St between 9 & 10 Ave","zip":"10001","status":"open","city":"New York","state":"NY","hours":"We 11:00AM-02:00PM","notes":"- This location has: soup, bread, beverages, socks, hygiene kits\n- Number currently not in service"}},{"type":"Feature","geometry":{"type":"Point","coordinates":[-73.9870774,40.7699659]},"properties":{"name":"Church of St. Paul the Apostle - Soup Kitchen","address":"405 W 59th St","zip":"10019","status":"open","city":"New York","state":"NY","hours":"Sa 08:30AM","notes":"- Formal ID and any other identification required "}},{"type":"Feature","geometry":{"type":"Point","coordinates":[-73.9043377,40.8175255]},"properties":{"name":"Give Them to Eat - Soup Kitchen","address":"800 E 156th St","zip":"10455","status":"closed","city":"Bronx","state":"NY","hours":"Tu 02:00PM-05:00PM","notes":"- Temporarily closed until further notice due to kitchen renovations"}},{"type":"Feature","geometry":{"type":"Point","coordinates":[-73.8762598,40.8335039]},"properties":{"name":"St. Joan of Arc Church","address":"1384 Stratford Ave","zip":"10472","status":"closed","city":"Bronx","state":"NY","hours":"Mo-Fr 8:00AM-7:30PM ","notes":""}},{"type":"Feature","geometry":{"type":"Point","coordinates":[-73.9678969,40.68495]},"properties":{"name":"Teen Challenge - Soup Kitchen","address":"416 Clinton Ave","zip":"11238","status":"closed","city":"Brooklyn","state":"NY","hours":"Sa 10:00AM-02:00PM","notes":""}},{"type":"Feature","geometry":{"type":"Point","coordinates":[-73.8497831,40.8228174]},"properties":{"name":"St. Andrew’s Kitchen","address":"781 Castle Hill Ave","zip":"10473","status":"open","city":"Bronx","state":"NY","hours":"Sa 12:00PM-02:00PM \"2nd and 4th week of the month\"","notes":""}},{"type":"Feature","geometry":{"type":"Point","coordinates":[-73.9526519,40.7163113]},"properties":{"name":"North Brooklyn Angels - Mobile Soup Kitchen","address":"1 Havemeyer St","zip":"11211","status":"open","city":"Brooklyn","state":"NY","hours":"Mo-Fr 12:30PM-01:30PM","notes":"- MONDAY’s Community Meal In Greenpoint: 862 Manhattan Avenue\n    - The truck is parked in front of the steps of the St Anthony of Padua-St. Alphonsus church at the intersection of Manhattan Avenue and Milton Street.\n- TUESDAY’s Community Meal on the Southside: 240 Division Avenue\n    - The truck is parked across the street from the Williamsburgh Library on the Division Avenue Overpass, between Marcy Ave & Rodney Street.\n- WEDNESDAY’s Community Meal In East Williamsburg/Bushwick: 195 Maujer Street\n    - The truck is parked in front of St. John the Evangelist Lutheran Church, across the street from the Williamsburg Houses\n- THURSDAY’s Community Meal in Greenpoint: Cooper Park Houses\n    - The truck is parked in front of the playground at the intersection of Jackson Street and Debevoise Avenue.\n- FRIDAY’s Community Meal in Bushwick & the Northside: \n    - 157 Johnson Ave: The truck is parked on Johnson Ave outside the Most Holy Trinity parking lot.\n    - 1 Havemeyer Ave: A meal is served from our community kitchen\n- Monday, Wednesday, Friday, deliver food to seniors"}},{"type":"Feature","geometry":{"type":"Point","coordinates":[73.96382904,40.57868195]},"properties":{"name":"Oceanview Jewish Center","address":"3100 Brighton 4th St","zip":"11235","status":"unknown","city":"Brooklyn","state":"NY","hours":"","notes":""}},{"type":"Feature","geometry":{"type":"Point","coordinates":[-73.8863315,40.6661463]},"properties":{"name":"New Hope Family Worship Center - Soup Kitchen","address":"817 Livonia Ave","zip":"11207","status":"closed","city":"Brooklyn","state":"NY","hours":"Sa 08:00AM-02:00PM","notes":"- Soup Kitchen is temporarily closed"}},{"type":"Feature","geometry":{"type":"Point","coordinates":[-74.011594,40.7079928]},"properties":{"name":"Trinity Church Brown Bag","address":"89 Broadway","zip":"10006","status":"open","city":"New York","state":"NY","hours":"2023-05-23 09:00AM-11:00AM \"[plentiful appointment]\"\n2023-05-30 09:00AM-11:00AM \"[plentiful appointment]\"\n2023-06-06 09:00AM-11:00AM \"[plentiful appointment]\"\n2023-06-13 09:00AM-11:00AM \"[plentiful appointment]\"\n2023-06-20 09:00AM-11:00AM \"[plentiful appointment]\"\n2023-06-27 09:00AM-11:00AM \"[plentiful appointment]\"\n2023-07-04 09:00AM-11:00AM \"[plentiful appointment]\"\n2023-07-11 09:00AM-11:00AM \"[plentiful appointment]\"\n2023-07-18 09:00AM-11:00AM \"[plentiful appointment]\"\n2023-07-25 09:00AM-11:00AM \"[plentiful appointment]\"\n2023-08-01 09:00AM-11:00AM \"[plentiful appointment]\"\n2023-08-08 09:00AM-11:00AM \"[plentiful appointment]\"","notes":"- Grab and go brown bag lunch\n- Walk-ins are welcome"}},{"type":"Feature","geometry":{"type":"Point","coordinates":[-73.925557,40.8156186]},"properties":{"name":"Momentum Project Boom! Health Center - Soup Kitchen","address":"226 E 144th St","zip":"10451","status":"open","city":"Bronx","state":"NY","hours":"Mon 12:00PM-01:00PM","notes":"- First come first serve\n- Anyone that is in need"}},{"type":"Feature","geometry":{"type":"Point","coordinates":[-73.9803445,40.6865313]},"properties":{"name":"Recovery House of Worship Brooklyn - Soup Kitchen","address":"360 Schermerhorn St","zip":"11217","status":"open","city":"Brooklyn","state":"NY","hours":"Mo,Tu,Fr 08:30AM-10:30AM","notes":"- Meals provided to go\n- Mobile hot shower provided Mondays 9:30AM-11:30AM\n- Clothing for men, women, children, and babies provided Fridays"}},{"type":"Feature","geometry":{"type":"Point","coordinates":[-74.0003114,40.7381373]},"properties":{"name":"The Red Door Place (Hope for Our Neighbors in Need) - Soup Kitchen","address":"201 W 13th St","zip":"10011","status":"open","city":"New York","state":"NY","hours":"Sa 12:00PM-02:00PM ","notes":"'- There is an app required to make an appointment at the food pantry. It's called Plentiful.\n- Plentiful is free, and can be downloaded on your phone. You will need to fill out basic info (you do not have to prove income or status,) \n- After basic info is entered, search for the Red Door Place and make a reservation. Make one when it's convenient for you, and come 5 mins before with the appointment confirmation on your phone."}},{"type":"Feature","geometry":{"type":"Point","coordinates":[-73.94661,40.8119439]},"properties":{"name":"Salem United Methodist Church - Soup Kitchen","address":"2190 Adam Clayton Powell Junior Blvd","zip":"10027","status":"open","city":"New York","state":"NY","hours":"We,Th 10:30AM-12:30PM","notes":"- Open at 10:30am and will close whenever food runs out\n- Currently only pickup; does not require ID     "}},{"type":"Feature","geometry":{"type":"Point","coordinates":[-73.9065957,40.6615492]},"properties":{"name":"Riverdale Osborne - Soup Kitchen","address":"680 Mother Gaston Blvd","zip":"11212","status":"closed","city":"Brooklyn","state":"NY","hours":"Mo,Fr 09:00AM-11:00AM","notes":"- Make sure to bring an ID and shopping chart "}},{"type":"Feature","geometry":{"type":"Point","coordinates":[-73.8496196,40.7322289]},"properties":{"name":"Masbia of Queens - Soup Kitchen","address":"105-47 64th Rd","zip":"11375","status":"open","city":"Queens","state":"NY","hours":"Su-Th 02:00PM-07:00PM ","notes":"- Food provided to-go"}},{"type":"Feature","geometry":{"type":"Point","coordinates":[-73.8953428,40.829607]},"properties":{"name":"PATHHSEO at Caldwell Temple - Soup Kitchen","address":"1288 Rev James A Polite Ave","zip":"10459","status":"unknown","city":"Bronx","state":"NY","hours":"Sa 09:00AM-11:00AM","notes":""}},{"type":"Feature","geometry":{"type":"Point","coordinates":[-73.9571898,40.661721]},"properties":{"name":"Grace Reformed Church of Flatbush","address":"1800 Bedford Ave","zip":"11225","status":"open","city":"Brooklyn","state":"NY","hours":"Su 10:00AM-02:00PM\nMo-Th 10:00AM-03:00PM","notes":"-   Prepared meals to-go only"}},{"type":"Feature","geometry":{"type":"Point","coordinates":[-73.9652911,40.6240702]},"properties":{"name":"Masbia of Flatbush - Soup Kitchen","address":"1372 Coney Island Ave","zip":"11230","status":"open","city":"Brooklyn","state":"NY","hours":"Su-Th 02:00PM-07:00PM","notes":""}},{"type":"Feature","geometry":{"type":"Point","coordinates":[-74.1325064,40.6404465]},"properties":{"name":"Rescue Ministry/Ministerio Rescate Inc. - Soup Kitchen","address":"2083 Richmond Ter","zip":"10302","status":"closed","city":"Staten Island","state":"NY","hours":"Tu 11:30AM-01:00PM","notes":"-   Food pantry is now permanently closed"}},{"type":"Feature","geometry":{"type":"Point","coordinates":[-73.9309074,40.6601937]},"properties":{"name":"United Community Baptist Church","address":"545 Utica Ave","zip":"11203","status":"open","city":"Brooklyn","state":"NY","hours":"Sa 10:00AM-12:00PM","notes":""}},{"type":"Feature","geometry":{"type":"Point","coordinates":[-73.9690907,40.7962913]},"properties":{"name":"St. Michael's Church - Soup Kitchen","address":"225 W 99th St","zip":"10025","status":"open","city":"New York","state":"NY","hours":"Sa 10:00AM-11:30PM","notes":"- Serving grab-and-go lunch at the 99th St entrance between Broadway and Amsterdam \n- Phone extension 3\n- All are welcome"}},{"type":"Feature","geometry":{"type":"Point","coordinates":[-73.9955253,40.6323632]},"properties":{"name":"Masbia of Boro Park - Soup Kitchen","address":"5402 New Utrecht Ave","zip":"11219","status":"open","city":"Brooklyn","state":"NY","hours":"Mo-Th 03:00PM-08:00PM","notes":"- Serving to-go meals\n- Allow walk-ins"}},{"type":"Feature","geometry":{"type":"Point","coordinates":[-73.8811637,40.7369456]},"properties":{"name":"New Life Community Development Corporation","address":"82-10 Queens Blvd","zip":"11373","status":"open","city":"Queens","state":"NY","hours":"Tu 06:00AM-08:00PM\nSa 11:00AM-01:00PM","notes":"- Homeless Meal Service: Sit down meals suspended but takeaway meals available for pick up on Tuesday evening and Saturday to those experiencing homelessness"}},{"type":"Feature","geometry":{"type":"Point","coordinates":[-73.7936344,40.6977846]},"properties":{"name":"Mount Zion B.C.","address":"106-60 Union Hall St","zip":"11433","status":"unknown","city":"Queens","state":"NY","hours":"Tu,Th 12:00PM-03:00PM","notes":""}},{"type":"Feature","geometry":{"type":"Point","coordinates":[-73.988408,40.5760038]},"properties":{"name":"ACTS Community Development Corps, Coney Island Lighthouse Mission - Soup Kitchen","address":"2114 Mermaid Ave","zip":"11224","status":"open","city":"Brooklyn","state":"NY","hours":"Tu 06:00PM-07:00PM\nTh 11:00AM-12:00PM","notes":""}},{"type":"Feature","geometry":{"type":"Point","coordinates":[-73.9145475,40.756625]},"properties":{"name":"Salvation Army, Queens Astoria Corps - Soup Kitchen","address":"45-18 Broadway","zip":"11103","status":"open","city":"Queens","state":"NY","hours":"Tu,Th 11:00AM-12:00PM","notes":"- have to come and register and make an appointment to pick up the food every two weeks"}},{"type":"Feature","geometry":{"type":"Point","coordinates":[-73.9844404,40.7561441]},"properties":{"name":"Project FIND, Woodstock Senior Center","address":"127 W 43rd St","zip":"10036","status":"open","city":"New York","state":"NY","hours":"Mo-Fr 11:00AM-01:00PM","notes":"- Serving free lunch for seniors"}},{"type":"Feature","geometry":{"type":"Point","coordinates":[-73.9477843,40.6863411]},"properties":{"name":"St. George's Episcopal Church - Soup Kitchen","address":"800 Marcy Ave","zip":"11216","status":"open","city":"Brooklyn","state":"NY","hours":"Tu-Th 12:30PM-02:00PM","notes":"- Grab-and-go meals available"}},{"type":"Feature","geometry":{"type":"Point","coordinates":[-73.843869,40.838312]},"properties":{"name":"St. Peter's Episcopal Church - Soup Kitchen","address":"2500 Westchester Ave","zip":"10461","status":"closed","city":"Bronx","state":"NY","hours":"Th 12:00PM-02:00PM","notes":""}},{"type":"Feature","geometry":{"type":"Point","coordinates":[-74.1369676,40.6333368]},"properties":{"name":"El Centro - Soup Kitchen","address":"221 Heberton Ave","zip":"10302","status":"open","city":"Staten Island","state":"NY","hours":"Tu,Th 08:30AM-01:00PM\nWe 01:00PM-03:00PM","notes":"- Food pantries operate out of 221 Heberton Ave with distribution occurring on Thursdays from 2:00PM-6:00PM\n"}},{"type":"Feature","geometry":{"type":"Point","coordinates":[-73.9056808,40.8274358]},"properties":{"name":"Manna of Life Ministries, Inc. - Soup Kitchen","address":"1101 Boston Rd","zip":"10456","status":"open","city":"Bronx","state":"NY","hours":"Sa 12:00PM-04:00PM\nMo-Fr 12:00AM-4:00PM","notes":"- Serving hot grab-and-go meals\n- by appointment, by the app plentiful "}},{"type":"Feature","geometry":{"type":"Point","coordinates":[-73.9271908,40.6781597]},"properties":{"name":"Calvary African Methodist Episcopal Church - Soup Kitchen","address":"790 Herkimer St","zip":"11233","status":"open","city":"Brooklyn","state":"NY","hours":"We 12:00PM-01:00PM \"Every other Wednesday\"","notes":""}},{"type":"Feature","geometry":{"type":"Point","coordinates":[-73.9592751,40.6388434]},"properties":{"name":"Fort Greene Hazel Brooks - Food Pantry","address":"961 Ocean Ave","zip":"11226","status":"closed","city":"Brooklyn","state":"NY","hours":"Mo,Fr 10:00AM-03:00PM","notes":""}},{"type":"Feature","geometry":{"type":"Point","coordinates":[-73.9434269,40.8023207]},"properties":{"name":"Beth Hark Christian Counseling Center - Soup Kitchen","address":"1832 Madison Ave","zip":"10035","status":"open","city":"New York","state":"NY","hours":"We,Th 12:00PM-02:00PM","notes":""}},{"type":"Feature","geometry":{"type":"Point","coordinates":[-73.91862,40.65704]},"properties":{"name":"The Hope Center Development Corporation - Soup Kitchen","address":"414 E 95th St","zip":"11212","status":"open","city":"Brooklyn","state":"NY","hours":"Sa 11:00AM-01:30PM","notes":"- Serving grab-and-go meals"}},{"type":"Feature","geometry":{"type":"Point","coordinates":[-73.9184778,40.6695974]},"properties":{"name":"OPIN (Other People in Need) / Holy House of Prayer for All People, Inc","address":"1768 Saint Johns Pl","zip":"11233","status":"unknown","city":"Brooklyn","state":"NY","hours":"We 05:00PM-07:00PM\nFr 02:00PM-04:00PM","notes":""}},{"type":"Feature","geometry":{"type":"Point","coordinates":[-73.9146261,40.687878]},"properties":{"name":"Thurston Memorial Outreach Ministries - Soup Kitchen","address":"1243 Bushwick Ave","zip":"11221","status":"open","city":"Brooklyn","state":"NY","hours":"Fr 05:00PM-07:30PM","notes":""}},{"type":"Feature","geometry":{"type":"Point","coordinates":[-73.89499,40.6590539]},"properties":{"name":"Church of God of Prophecy - Soup Kitchen","address":"71 Malta St","zip":"11207","status":"open","city":"Brooklyn","state":"NY","hours":"Tu 03:00PM-06:30PM","notes":""}},{"type":"Feature","geometry":{"type":"Point","coordinates":[-73.9480598,40.8049454]},"properties":{"name":"Mount Olivet Baptist Church Community Meals Program - Soup Kitchen","address":"201 Malcolm X Blvd","zip":"10027","status":"closed","city":"New York","state":"NY","hours":"Mo 12:00PM-01:30PM","notes":"- Closed indefinitely "}},{"type":"Feature","geometry":{"type":"Point","coordinates":[-73.7970345,40.6981415]},"properties":{"name":"The Harding Ford Vision, Inc. - Soup Kitchen","address":"157-22 Tuskegee Airmen Way","zip":"11433","status":"open","city":"Queens","state":"NY","hours":"We 10:00AM-12:00PM","notes":""}},{"type":"Feature","geometry":{"type":"Point","coordinates":[-73.9097575,40.6589775]},"properties":{"name":"Gethsemane Outreach Ministries, Inc.","address":"144 Newport St","zip":"11212","status":"open","city":"Brooklyn","state":"NY","hours":"Fr 01:00PM-03:00PM","notes":""}},{"type":"Feature","geometry":{"type":"Point","coordinates":[-73.9835429,40.7260554]},"properties":{"name":"St. John's Bread & Life - Mobile Soup Kitchen","address":"Tompkins Sq Park, 144 Avenue A","zip":"11355","status":"open","city":"Queens","state":"NY","hours":"Tu 09:00AM-12:00PM","notes":"- Check website for current schedule\n- "}},{"type":"Feature","geometry":{"type":"Point","coordinates":[-73.8806356,40.7524467]},"properties":{"name":"Salvation Army, Queens Temple Corps - Soup Kitchen","address":"86-07 35th Ave","zip":"11372","status":"open","city":"Queens","state":"NY","hours":"Mo-Fr 11:30AM-01:00PM","notes":"- If you need help with groceries, call the listed number"}},{"type":"Feature","geometry":{"type":"Point","coordinates":[-73.9798923,40.7278177]},"properties":{"name":"Father's Heart Ministries - Soup Kitchen","address":"543 E 11th St","zip":"10009","status":"open","city":"New York","state":"NY","hours":"Sa 08:30AM-11:00AM ","notes":"- ID is recommended\n- Bagged breakfast is to-go"}},{"type":"Feature","geometry":{"type":"Point","coordinates":[-73.8781777,40.6756261]},"properties":{"name":"Isaiah's Temple of Mt. Hope - Soup Kitchen","address":"862 Glenmore Ave","zip":"11208","status":"open","city":"Brooklyn","state":"NY","hours":"Tu,Th 02:00PM-04:00PM","notes":"- Tuesday serves light lunch\n- Thursday serves hot meal"}},{"type":"Feature","geometry":{"type":"Point","coordinates":[-73.8863601,40.8654811]},"properties":{"name":"Part of the Solution (POTS) - Community Kitchen","address":"2759 Webster Ave","zip":"10458","status":"open","city":"Bronx","state":"NY","hours":"Mo-Fr 12:30PM-03:00PM","notes":"- Meals served to-go only"}},{"type":"Feature","geometry":{"type":"Point","coordinates":[-73.7805579,40.6934778]},"properties":{"name":"Allen Outreach Ministry Church - Soup Kitchen","address":"111-54 Merrick Blvd","zip":"11433","status":"closed","city":"Queens","state":"NY","hours":"Mo,Th 09:00AM-01:00PM","notes":""}},{"type":"Feature","geometry":{"type":"Point","coordinates":[-73.9673459,40.5933823]},"properties":{"name":"Our Lady of Grace Parish Ministry - Soup Kitchen","address":"2322 E 4th St","zip":"11223","status":"open","city":"Brooklyn","state":"NY","hours":"Mo,We,Th 09:00AM-11:30AM","notes":""}},{"type":"Feature","geometry":{"type":"Point","coordinates":[-73.961273,40.6817751]},"properties":{"name":"Bethel Seventh-Day Adventist Church - Soup Kitchen","address":"457 Grand Ave","zip":"11238","status":"unknown","city":"Brooklyn","state":"NY","hours":"Su 01:00PM-02:00PM","notes":""}},{"type":"Feature","geometry":{"type":"Point","coordinates":[-73.8962305,40.8262146]},"properties":{"name":"Loyal Baptist Church","address":"881 E 167th St","zip":"10459","status":"unknown","city":"Bronx","state":"NY","hours":"Th 11:00AM-03:00PM","notes":""}},{"type":"Feature","geometry":{"type":"Point","coordinates":[-73.8561263,40.8928015]},"properties":{"name":"East 233rd St Senior Center - Soup Kitchen","address":"732 E 233rd St","zip":"10466","status":"unknown","city":"Bronx","state":"NY","hours":"Tu 04:00PM-06:00PM","notes":""}},{"type":"Feature","geometry":{"type":"Point","coordinates":[-73.7934447,40.6993181]},"properties":{"name":"Macedonia Community Development Corp - Soup Kitchen","address":"106-16 Guy R Brewer Blvd","zip":"11433","status":"open","city":"Queens","state":"NY","hours":"Mo 01:00AM-04:00PM\nTu 10:00AM-12:00PM","notes":""}},{"type":"Feature","geometry":{"type":"Point","coordinates":[-73.7934779,40.673888]},"properties":{"name":"Morris Brown Helping Hand Food Program - Soup Kitchen","address":"145-03 Rockaway Blvd","zip":"11436","status":"closed","city":"Queens","state":"NY","hours":"We 10:00AM-12:00PM","notes":""}},{"type":"Feature","geometry":{"type":"Point","coordinates":[-73.9400835,40.6917982]},"properties":{"name":"Crossover Baptist Church Community Outreach Help Center - Soup Kitchen","address":"85-12 101st Ave","zip":"11416","status":"open","city":"Queens","state":"NY","hours":"","notes":"They have events for everybody not just the people within the church."}},{"type":"Feature","geometry":{"type":"Point","coordinates":[-73.7522446,40.6084986]},"properties":{"name":"First Baptist Church/H.O. Scott Education & Community Center - Soup Kitchen","address":"15-10 Redfern Ave","zip":"11691","status":"unknown","city":"Queens","state":"NY","hours":"Th 05:00PM-07:00PM","notes":""}},{"type":"Feature","geometry":{"type":"Point","coordinates":[-73.9601139,40.7995462]},"properties":{"name":"Southern Baptist Church","address":"12 W 108th St","zip":"10025","status":"open","city":"New York","state":"NY","hours":"Tu-Su 09:00AM- 05:00PM","notes":""}},{"type":"Feature","geometry":{"type":"Point","coordinates":[-73.791682,40.690409]},"properties":{"name":"Bethany Baptist Church of Jamaica - Soup Kitchen","address":"157-11 111th Ave","zip":"11433","status":"unknown","city":"Queens","state":"NY","hours":"Tu 11:00AM-01:00PM","notes":"- Temporarily closed until further notice"}},{"type":"Feature","geometry":{"type":"Point","coordinates":[-74.0098865,40.6446188]},"properties":{"name":"Salvation Army, Sunset Park Corps - Soup Kitchen","address":"520 50th St","zip":"11220","status":"open","city":"Brooklyn","state":"NY","hours":"Mo-Fr 06:00PM-07:00PM","notes":"- Open to everyone"}},{"type":"Feature","geometry":{"type":"Point","coordinates":[-74.0055982,40.7241078]},"properties":{"name":"The Door - Soup Kitchen","address":"555 Broome St","zip":"10013","status":"open","city":"New York","state":"NY","hours":"Sa 11:30 AM–02:00PM \nTu 03:30PM-05:30PM","notes":"- Need to be a member of The Door to receive food"}},{"type":"Feature","geometry":{"type":"Point","coordinates":[-73.9127922,40.6843818]},"properties":{"name":"Mount Paran Community Development Corp.","address":"1665 Broadway","zip":"11207","status":"closed","city":"Brooklyn","state":"NY","hours":"Tu,We,Fr 12:00PM-01:00PM\n","notes":"- Temporarily closed until further notice"}},{"type":"Feature","geometry":{"type":"Point","coordinates":[-73.9317111,40.7014365]},"properties":{"name":"Compassion House Community Development Corporation/Cathedral of Joy - Soup Kitchen","address":"43 George St","zip":"11206","status":"closed","city":"Brooklyn","state":"NY","hours":"Tu 08:00AM-09:30AM\nSa 09:00AM-10:30AM","notes":"- Temporarily closed until further notice"}},{"type":"Feature","geometry":{"type":"Point","coordinates":[-73.9814247,40.7452878]},"properties":{"name":"Grand Central Neighborhood Social Services Corp.","address":"120 E 32nd St","zip":"10016","status":"open","city":"New York","state":"NY","hours":"Su-Sa 12:00PM-01:30PM\nSu-Sa 04:00PM-06:00PM","notes":"'- Offering sit down meals\n- Food pantry every 2nd Wednesday of the month. For more information, please contact admin@gcnssc.org or (212) 883-0680 ext. 108"}},{"type":"Feature","geometry":{"type":"Point","coordinates":[-73.9412915,40.8087811]},"properties":{"name":"Shiloh Church of Christ - Soup Kitchen","address":"5 W 128th St","zip":"10027","status":"closed","city":"New York","state":"NY","hours":"Th 12:00PM-02:00PM","notes":""}},{"type":"Feature","geometry":{"type":"Point","coordinates":[-73.9170351,40.6749415]},"properties":{"name":"Glover Memorial Baptist Church - Soup Kitchen","address":"2134 Dean St","zip":"11233","status":"open","city":"Brooklyn","state":"NY","hours":"We 12:00PM-02:00PM \nTh 09:00AM-10:00AM","notes":"- Grab-and-go service only"}},{"type":"Feature","geometry":{"type":"Point","coordinates":[-73.9559034,40.6747044]},"properties":{"name":"New Haven SDA Church - Soup Kitchen","address":"634 Prospect Pl","zip":"11216","status":"unknown","city":"Brooklyn","state":"NY","hours":"Su 09:00AM-02:00PM","notes":""}},{"type":"Feature","geometry":{"type":"Point","coordinates":[-73.8588585,40.7562333]},"properties":{"name":"Mount Horeb Baptist Church","address":"109-20 34th Ave","zip":"11368","status":"closed","city":"Queens","state":"NY","hours":"Tu 12:00PM-02:00PM","notes":"- Temporarily closed until further notice due to COVID-19"}},{"type":"Feature","geometry":{"type":"Point","coordinates":[-73.8970233,40.674486]},"properties":{"name":"Cornerstone SDA Church - Soup Kitchen","address":"138 Pennsylvania Ave","zip":"11207","status":"open","city":"Brooklyn","state":"NY","hours":"Th 10:00AM-12:00PM","notes":""}},{"type":"Feature","geometry":{"type":"Point","coordinates":[-73.94276962,40.81730139]},"properties":{"name":"Iris House, West Side - Soup Kitchen","address":"2348 7th Ave","zip":"10030","status":"open","city":"New York","state":"NY","hours":"Tu-Fr 12:00PM-01:30PM","notes":"- grab and go lunches"}},{"type":"Feature","geometry":{"type":"Point","coordinates":[-73.864336,40.876352]},"properties":{"name":"Immaculate Conception Church - Soup Kitchen","address":"754 E Gun Hill Rd","zip":"10467","status":"open","city":"Bronx","state":"NY","hours":"Tu-Th 12:00PM-01:00PM","notes":""}},{"type":"Feature","geometry":{"type":"Point","coordinates":[-73.9153478,40.8142782]},"properties":{"name":"New York City Relief - Mobile Sites","address":"BROOKE AVE (BTWN 147TH & 148TH ST)","zip":"10451","status":"open","city":"Bronx","state":"NY","hours":"Sa 11:00AM-01:00PM","notes":"'- Stops at Brooke Avenue (Between 147th and 148th Street)\n- This location has soup, bread, beverages, socks, hygiene kits"}},{"type":"Feature","geometry":{"type":"Point","coordinates":[-73.9770545,40.7893562]},"properties":{"name":"The Other Place/Goddard Riverside","address":"264 W 87th St","zip":"10024","status":"open","city":"New York","state":"NY","hours":"Mo-Fr 12:00PM-01:00PM","notes":"- Seniors only"}},{"type":"Feature","geometry":{"type":"Point","coordinates":[-73.9743481,40.6848036]},"properties":{"name":"Hanson Place SDA Church Community Services - Soup Kitchen","address":"88 Hanson Place","zip":"11217","status":"open","city":"Brooklyn","state":"NY","hours":"Su 01:00PM-02:00PM\nWe 11:00-02:00PM","notes":"- Food provided to-go\n- Food donations: Canned goods only  "}},{"type":"Feature","geometry":{"type":"Point","coordinates":[-73.955499,40.769518]},"properties":{"name":"Urban Outreach Center, Jan Hus Presbyterian Church - Soup Kitchen","address":"1745 1st Ave","zip":"10128","status":"open","city":"New York","state":"NY","hours":"Tu 05:30PM-06:30PM","notes":"-   Serving grab-and-go hot meals\n-   Temporarily located inside the Church of the Living Hope"}},{"type":"Feature","geometry":{"type":"Point","coordinates":[-73.9343697,40.7970441]},"properties":{"name":"Fraternite Notre Dame, Inc. - Soup Kitchen","address":"2290 1st Ave","zip":"10035","status":"open","city":"New York","state":"NY","hours":"Th 11:00AM-01:00PM","notes":"- Must bring ID\n- Food Pantries occur on Fridays from 2:00-5:00PM"}},{"type":"Feature","geometry":{"type":"Point","coordinates":[-73.9726722,40.7927122]},"properties":{"name":"LSS/Advent Lutheran Church - Soup Kitchen","address":"2504 Broadway","zip":"10025","status":"open","city":"New York","state":"NY","hours":"Sa 12:00PM-01:00PM ","notes":"- Hot lunch to go\n- Use side entrance near 93rd St"}},{"type":"Feature","geometry":{"type":"Point","coordinates":[-73.8689982,40.8378781]},"properties":{"name":"Roman Catholic Church of St. Anthony - Soup Kitchen","address":"1750 Mansion St","zip":"10460","status":"open","city":"Bronx","state":"NY","hours":"Sa 07:00AM-12:00PM","notes":"- Serving to-go meals only"}},{"type":"Feature","geometry":{"type":"Point","coordinates":[-73.8748213,40.8316131]},"properties":{"name":"We Care Community Outreach/New Jerusalem Church - Soup Kitchen","address":"1624 E 172nd St","zip":"10472","status":"open","city":"Bronx","state":"NY","hours":"Mo-We 12:00PM-1:00PM","notes":"- Emergency food service available \n- Open 7 days a week; Hours vary daily\n- Must call by phone prior to visiting"}},{"type":"Feature","geometry":{"type":"Point","coordinates":[-73.791632,40.677872]},"properties":{"name":"Rush Temple AME Zion Church","address":"119-48 Sutphin Blvd","zip":"11434","status":"closed","city":"Queens","state":"NY","hours":"We 12:00PM-01:30PM","notes":"- Temporarily closed until further notice"}},{"type":"Feature","geometry":{"type":"Point","coordinates":[-73.9922596,40.733893]},"properties":{"name":"Village Temple Soup Kitchen","address":"33 E 12th St","zip":"10003","status":"open","city":"New York","state":"NY","hours":"Sa 12:00PM-01:00PM","notes":"- Serving meals to go"}},{"type":"Feature","geometry":{"type":"Point","coordinates":[-73.9382554,40.6706308]},"properties":{"name":"Bethany United Methodist Church","address":"1208 St Johns Pl","zip":"11213","status":"open","city":"Brooklyn","state":"NY","hours":"Tu 12:30PM-02:30PM","notes":""}},{"type":"Feature","geometry":{"type":"Point","coordinates":[-74.0036553,40.725573]},"properties":{"name":"God's Love We Deliver","address":"166 6th Ave","zip":"10013","status":"open","city":"New York","state":"NY","hours":"Su-Fr 06:30AM-08:00PM","notes":"- Medically tailored, home-delivered meals to patients who are too sick to shop or cook for themselves "}},{"type":"Feature","geometry":{"type":"Point","coordinates":[-73.9992241,40.7531832]},"properties":{"name":"Gay Men's Health Crisis (GMHC) - Soup Kitchen","address":"307 W 38th St","zip":"10018","status":"open","city":"New York","state":"NY","hours":"We 11:30AM-01:30PM","notes":""}},{"type":"Feature","geometry":{"type":"Point","coordinates":[-73.9408271,40.8315344]},"properties":{"name":"Bethel Holy Church - Soup Kitchen","address":"922 Saint Nicholas Ave","zip":"10032","status":"unknown","city":"New York","state":"NY","hours":"Tu 12:00PM-02:00PM","notes":""}},{"type":"Feature","geometry":{"type":"Point","coordinates":[-74.007457,40.7102958]},"properties":{"name":"Grand Central Food Program, St. Mark's Place","address":"55 St Mark's Pl","zip":"10038","status":"closed","city":"New York","state":"NY","hours":"","notes":""}},{"type":"Feature","geometry":{"type":"Point","coordinates":[-73.7966576,40.7057777]},"properties":{"name":"First Presbyterian Church in Jamaica - Soup Kitchen","address":"89-60 164th St","zip":"11432","status":"open","city":"Queens","state":"NY","hours":"We 05:30PM-06:30PM","notes":"- Soup kitchen is serving grab-and-go meals, no in-house dining\n- Open to anyone, no appointments needed"}},{"type":"Feature","geometry":{"type":"Point","coordinates":[-73.8835754,40.8406082]},"properties":{"name":"Grace Episcopal Church - Soup Kitchen","address":"1909 Vyse Ave","zip":"10460","status":"closed","city":"Bronx","state":"NY","hours":"Tu-Sa 12:00PM-03:00PM","notes":""}},{"type":"Feature","geometry":{"type":"Point","coordinates":[-73.922807,40.689163]},"properties":{"name":"Faith Assemblies of God - Soup Kitchen","address":"1014 Gates Ave","zip":"11221","status":"closed","city":"Brooklyn","state":"NY","hours":"Sa 09:00AM-12:00PM","notes":""}},{"type":"Feature","geometry":{"type":"Point","coordinates":[-73.8013315,40.7061132]},"properties":{"name":"Catholic Charities Brooklyn and Queens, Presentation of the Blessed Virgin Mary - Soup Kitchen","address":"88-19 Parsons Blvd","zip":"11432","status":"open","city":"Queens","state":"NY","hours":"2023-05-23 04:00PM-06:00PM\n2023-05-30 04:00PM-06:00PM\n2023-06-06 04:00PM-06:00PM\n2023-06-13 04:00PM-06:00PM\n2023-06-20 04:00PM-06:00PM\n2023-06-27 04:00PM-06:00PM\n2023-07-04 04:00PM-06:00PM\n2023-07-11 04:00PM-06:00PM\n2023-07-18 04:00PM-06:00PM\n2023-07-25 04:00PM-06:00PM\n2023-08-01 04:00PM-06:00PM\n2023-08-08 04:00PM-06:00PM","notes":"-  Opens at 5:30PM and closes when food runs out \n- Food Pantry requires an ID\n- Soup Kitchen doesn't require an ID"}},{"type":"Feature","geometry":{"type":"Point","coordinates":[-73.9470911,40.6954053]},"properties":{"name":"St. Stephen Outreach - Soup Kitchen","address":"874 Myrtle Ave","zip":"11206","status":"open","city":"Brooklyn","state":"NY","hours":"We-Fr 11:00AM-01:00PM","notes":""}},{"type":"Feature","geometry":{"type":"Point","coordinates":[-73.8001153,40.7052721]},"properties":{"name":"First Reformed Church of Jamaica","address":"159-29 90th Ave","zip":"11432","status":"unknown","city":"Queens","state":"NY","hours":"Mo 05:00PM-06:15PM","notes":""}},{"type":"Feature","geometry":{"type":"Point","coordinates":[-74.0787309,40.6233613]},"properties":{"name":"Stapleton U.A.M.E. Church - Soup Kitchen","address":"49 Tompkins Ave","zip":"10304","status":"open","city":"Staten Island","state":"NY","hours":"Th 04:00PM-06:00PM","notes":"\n- Hot meals and other things to bring home"}},{"type":"Feature","geometry":{"type":"Point","coordinates":[-73.9461981,40.6809667]},"properties":{"name":"Beulah Church of God in Christ Jesus - Soup Kitchen","address":"956 Marcy Ave","zip":"11216","status":"closed","city":"Brooklyn","state":"NY","hours":"We 12:30PM-02:00PM","notes":""}},{"type":"Feature","geometry":{"type":"Point","coordinates":[-73.899134,40.861678]},"properties":{"name":"Creston Avenue Baptist Church of Christ, Inc - Soup Kitchen","address":"114 E 188th St","zip":"10468","status":"open","city":"Bronx","state":"NY","hours":"Sa 12:00PM-02:00PM ","notes":"- ID with proof of address required"}},{"type":"Feature","geometry":{"type":"Point","coordinates":[-73.9321805,40.6851281]},"properties":{"name":"Bridge Street AME Missionary Free Food Program","address":"277 Stuyvesant Ave","zip":"11221","status":"open","city":"Brooklyn","state":"NY","hours":"We 07:00AM-02:00PM","notes":""}},{"type":"Feature","geometry":{"type":"Point","coordinates":[-73.7810719,40.7085951]},"properties":{"name":"Bethesda Missionary Baptist Church - Soup Kitchen","address":"179-09 Jamaica Ave","zip":"11432","status":"closed","city":"Queens","state":"NY","hours":"Mo,Th,Fr 12:00PM-01:30PM","notes":""}},{"type":"Feature","geometry":{"type":"Point","coordinates":[-73.9504477,40.690197]},"properties":{"name":"Salvation Army, Bedford Temple Corps - Soup Kitchen","address":"110 Kosciuszko St","zip":"11216","status":"open","city":"Brooklyn","state":"NY","hours":"Th 10:00AM-12:00PM","notes":""}},{"type":"Feature","geometry":{"type":"Point","coordinates":[-73.8470219,40.8712717]},"properties":{"name":"Eastchester Presbyterian Church","address":"3154 Fish Ave","zip":"10469","status":"open","city":"Bronx","state":"NY","hours":"Th 05:00PM-06:00PM","notes":""}},{"type":"Feature","geometry":{"type":"Point","coordinates":[-73.9105337,40.6619052]},"properties":{"name":"Little Rock Baptist Church, Inc.","address":"375 Bristol St","zip":"11212","status":"open","city":"Brooklyn","state":"NY","hours":"Tu,Th 11:30AM-01:00PM\n","notes":""}},{"type":"Feature","geometry":{"type":"Point","coordinates":[-73.9986816,40.7378097]},"properties":{"name":"New York City Relief, Salvation Army, New York Temple - Soup Kitchen","address":"120 W 14th St","zip":"10011","status":"open","city":"New York","state":"NY","hours":"Mo-Fr 10:00AM-02:00PM","notes":"- Food Pantry is by appointment only, call 212-337-7469"}},{"type":"Feature","geometry":{"type":"Point","coordinates":[-73.9651341,40.8070418]},"properties":{"name":"Broadway Community - Soup Kitchen","address":"601 W 114th St","zip":"10025","status":"open","city":"New York","state":"NY","hours":"Mo,We,Fr 10:00AM-01:30PM","notes":"- 10:00AM-01:30PM is dine-in soup kitchen\n- 12:30PM-01:30PM is take-out soup kitchen\n- To-go meals for breakfast and lunch"}},{"type":"Feature","geometry":{"type":"Point","coordinates":[-73.9761388,40.7901]},"properties":{"name":"Congregation B'nai Jeshurun","address":"257 W 88th St","zip":"10024","status":"open","city":"New York","state":"NY","hours":"Th 12:00PM-01:00PM","notes":"- Meals are bagged to-go"}},{"type":"Feature","geometry":{"type":"Point","coordinates":[-73.9213317,40.6675061]},"properties":{"name":"Ebenezer Seventh Day Adventist Church - Soup Kitchen","address":"1234 East New York Ave","zip":"11212","status":"closed","city":"Brooklyn","state":"NY","hours":"Su 12:30PM-02:00PM","notes":"- Temporarily closed due to COVID-19"}},{"type":"Feature","geometry":{"type":"Point","coordinates":[-73.9184841,40.8622334]},"properties":{"name":"New York City Love Kitchen - Soup Kitchen","address":"3816 9th Ave","zip":"10034","status":"open","city":"New York","state":"NY","hours":"Mo-Fr 02:00PM-04:00PM","notes":"- The entrance is on the corner of 204th and 9th\n- To-go meals only"}},{"type":"Feature","geometry":{"type":"Point","coordinates":[-73.9886736,40.7598637]},"properties":{"name":"St. Lukes Lutheran Church","address":"308 W 46th St","zip":"10036","status":"open","city":"New York","state":"NY","hours":"Tu,Th 01:00PM-02:00PM","notes":"- Serving hot takeout lunch\n- Now allowing guests who do not have proof of vaccination to dine-in\n- Vegetarian options available upon request\n"}},{"type":"Feature","geometry":{"type":"Point","coordinates":[-73.9828518,40.6783171]},"properties":{"name":"Community Help in Park Slope, Inc. (CHiPS) - Soup Kitchen","address":"200 4th Ave","zip":"11217","status":"open","city":"Brooklyn","state":"NY","hours":"Mo-Sa 09:00AM-10:30AM \"Breakfast\"\nMo-Sa 11:30AM-01:00PM \"Lunch\"","notes":"- Offers Breakfast"}},{"type":"Feature","geometry":{"type":"Point","coordinates":[-73.788107,40.692739]},"properties":{"name":"Bethel Gospel Tabernacle - Soup Kitchen","address":"110-25 Guy R Brewer Blvd","zip":"11433","status":"open","city":"Queens","state":"NY","hours":"Tu,Fr 12:00AM-02:00PM","notes":"- Sign-up upon arrival.  \n- Dine-in service available now  Pickup to-go meals available. \n- Please bring an ID"}},{"type":"Feature","geometry":{"type":"Point","coordinates":[-73.7629087,40.6901644]},"properties":{"name":"First Church of God in Christ - Soup Kitchen","address":"187-10 Baisley Blvd","zip":"11412","status":"closed","city":"Queens","state":"NY","hours":"Th 02:00PM-03:00PM","notes":"- Due to COVID-19, the soup kitchen is closed until further notice"}},{"type":"Feature","geometry":{"type":"Point","coordinates":[-74.0234482,40.6337553]},"properties":{"name":"Bay Ridge Center - Soup Kitchen","address":"411 Ovington Ave","zip":"11209","status":"closed","city":"Brooklyn","state":"NY","hours":"Mo-Fr 12:00PM-01:00PM \"Eat-In Meals\"\nMo-Fr 01:00PM-01:30PM \"Grab-and-Go Meal Distribution\"","notes":"- Visitors must call to make a reservation, preferably 2 days in advance\n- Grab-and-go meals distributed at 4th Ave entrance\n- $2 donation suggested for eat-in meals"}},{"type":"Feature","geometry":{"type":"Point","coordinates":[-74.1330831,40.626601]},"properties":{"name":"Salvation Army, Port Richmond Corps - Soup Kitchen","address":"1295 Forest Ave","zip":"10302","status":"open","city":"Staten Island","state":"NY","hours":"Tu 11:30AM-01:00PM\nMo,Th 11:00AM-01:00PM","notes":"-   Only serves residents of zip code 10302\n-  once a month\n-  Call 718-442-2145 to set up an appointment"}},{"type":"Feature","geometry":{"type":"Point","coordinates":[-74.0769411,40.6293768]},"properties":{"name":"Project Hospitality - Soup Kitchen","address":"514 Bay St","zip":"10304","status":"open","city":"Staten Island","state":"NY","hours":"Tu,Th 11:30AM-01:00PM","notes":"- Meals provided to-go"}},{"type":"Feature","geometry":{"type":"Point","coordinates":[-73.8946947,40.7029794]},"properties":{"name":"Salvation Army, Ridgewood Citadel Corps - Soup Kitchen","address":"69-23 Cypress Hills St","zip":"11385","status":"closed","city":"Queens","state":"NY","hours":"Mo-Fr 10:00AM-02:00PM","notes":""}},{"type":"Feature","geometry":{"type":"Point","coordinates":[-73.798666,40.704881]},"properties":{"name":"Salvation Army, Jamaica Citadel Corps - Soup Kitchen","address":"90-23 161st St","zip":"11432","status":"open","city":"Queens","state":"NY","hours":"Mo-We 12:00PM-01:00PM","notes":"- First come, first serve"}},{"type":"Feature","geometry":{"type":"Point","coordinates":[-73.7991026,40.6958132]},"properties":{"name":"Bethel Emanuel Temple, Bet's Shepherds Inn, God's House Today Ministries - Soup Kitchen","address":"106-23 154th St","zip":"11433","status":"unknown","city":"Queens","state":"NY","hours":"Mo-Fr 12:00PM-01:00PM","notes":""}},{"type":"Feature","geometry":{"type":"Point","coordinates":[-73.9492356,40.795809]},"properties":{"name":"New York Common Pantry - Soup Kitchen","address":"8 E 109th St","zip":"10029","status":"open","city":"New York","state":"NY","hours":"Mo-Fr 2:30PM\nSu,Sa 4:00PM-5:00PM","notes":"- Bring proof of address and be prepared to declare income\n- Brown bag lunch is for homeless community members"}},{"type":"Feature","geometry":{"type":"Point","coordinates":[-73.9863775,40.7230138]},"properties":{"name":"University Community Social Services - Soup Kitchen","address":"137 E 2nd St","zip":"10009","status":"open","city":"New York","state":"NY","hours":"Sa 08:00AM–02:30PM","notes":"- \"Grab and Go\" meals\n- Breakfast includes fresh eggs, turkey ham, cheddar cheese, yogurt, granola, oatmeal, pastries, coffee, tea, and fruit.\n- Lunch includes meatloaf served with a salad, side dish, fruit, and dessert! Seasonal garden to table produce\n- indoor seating has been suspended until further notice."}},{"type":"Feature","geometry":{"type":"Point","coordinates":[-73.9409878,40.822057]},"properties":{"name":"Union Baptist Church, Inc. - Soup Kitchen","address":"240 W 145th St","zip":"10039","status":"closed","city":"New York","state":"NY","hours":"","notes":""}},{"type":"Feature","geometry":{"type":"Point","coordinates":[-73.9618358,40.8038206]},"properties":{"name":"St. John the Divine - Cathedral Kitchen","address":"1047 Amsterdam Ave","zip":"10025","status":"open","city":"New York","state":"NY","hours":"Mo-Fr 10:00AM-04:30PM","notes":"- Grab-and-go lunches only\n- Lines begin at 9:30AM\n- Closes at 3:00PM or until food runs out\n- Community fridge that distributes food daily\n    - on Sat/Sun, time depends on how much food is distributed\n- Part of Plentiful Program --> sign up to get bags of food\n    - Plentiful is operational Thursday only, date is determined and functions similarly to an appointment"}},{"type":"Feature","geometry":{"type":"Point","coordinates":[-73.9555696,40.7732276]},"properties":{"name":"Temple Shaaray Tefila","address":"250 E 79th St","zip":"10075","status":"open","city":"New York","state":"NY","hours":"We 11:30AM-12:00PM","notes":"- Bagged lunches given out on sidewalk\n- Prepared Kosher style but food is NOT Kosher\n- If no meals, $5 gift certificates will be handed out instead\n- Line starts 11:15"}},{"type":"Feature","geometry":{"type":"Point","coordinates":[-73.9764279,40.7608618]},"properties":{"name":"St. Thomas - Soup Kitchen","address":"1 W 53rd St","zip":"10019","status":"closed","city":"New York","state":"NY","hours":"Sa 11:00AM-12:30PM","notes":"- Temporarily closed until further notice. Hoping to reopen soon."}},{"type":"Feature","geometry":{"type":"Point","coordinates":[-73.9869778,40.7636837]},"properties":{"name":"St. Paul's House, Inc. - Soup Kitchen","address":"335 W 51st St","zip":"10019","status":"open","city":"New York","state":"NY","hours":"Mo,We,Fr 08:00PM-09:30PM","notes":"- Serving breakfast-to-go\n- Vegetarian meals available upon request based off of availability \n- Not required to attend mass"}},{"type":"Feature","geometry":{"type":"Point","coordinates":[-73.9559829,40.814938]},"properties":{"name":"St. Mary's Episcopal Church - Soup Kitchen","address":"521 W 126th St","zip":"10027","status":"open","city":"New York","state":"NY","hours":"Sa 10:00AM-11:30AM","notes":"- Call on Mondays for the location of the mobile soup kitchen\n- Please bring your own bags or cart"}},{"type":"Feature","geometry":{"type":"Point","coordinates":[-74.0006787,40.7326297]},"properties":{"name":"St. Joseph's Soup Kitchen, First Presbyterian Church - Soup Kitchen","address":"12 W 12th St","zip":"10011","status":"open","city":"New York","state":"NY","hours":"Sa 09:00AM-05:00PM","notes":"- Grab-and-go bag meals available\n- Use the 5th Ave entrance\n- Vegetarian options available"}},{"type":"Feature","geometry":{"type":"Point","coordinates":[-73.9830259,40.7794675]},"properties":{"name":"National Council of Jewish Women - Community Kitchen","address":"241 W 72nd St","zip":"10023","status":"open","city":"New York","state":"NY","hours":"We 04:30PM\nSu 11:30AM","notes":"- Grab-and-go pre-packed bags\n- Dine-in available"}},{"type":"Feature","geometry":{"type":"Point","coordinates":[-73.9358003,40.8042052]},"properties":{"name":"Salvation Army, Manhattan Citadel Corps - Soup Kitchen","address":"175 E 125th St","zip":"10035","status":"open","city":"New York","state":"NY","hours":"Fr 01:00PM-02:00PM","notes":"- Only by appointment"}},{"type":"Feature","geometry":{"type":"Point","coordinates":[-73.9447607,40.799702]},"properties":{"name":"Mount Zion African Methodist Episcopal Church - Soup Kitchen","address":"1765 Madison Ave","zip":"10029","status":"open","city":"New York","state":"NY","hours":"Fr 10:00AM-11:00PM\nSa 10:00AM-12:00PM","notes":"- Proof of address, photo ID required\n- Offers Kosher or Halal foods but needs to know in advance\n- Pickups once a month"}},{"type":"Feature","geometry":{"type":"Point","coordinates":[-74.0016211,40.7175359]},"properties":{"name":"New York City Relief, Bowery Mission Ministries - Soup Kitchen","address":"227 Bowery","zip":"10013","status":"open","city":"New York","state":"NY","hours":"Su-Sa 08:00AM-09:00AM \"Breakfast\"\nSu-Sa 01:00PM-02:00PM \"Lunch\"\nSu-Sa 05:00PM-06:00PM \"Dinner\"","notes":"-  All meals are pre-packed to go\n- Services offered: Shower and clothing Mo-Fr 10 AM-12PM. First come first serve.\n- Offers dietary options if notified in advance\n- Food pantry from 9-11 Mo-Fr"}},{"type":"Feature","geometry":{"type":"Point","coordinates":[-73.999188,40.749416]},"properties":{"name":"Holy Apostles - Soup Kitchen","address":"296 9th Ave","zip":"10001","status":"open","city":"New York","state":"NY","hours":"2023-05-18 01:30PM-02:30PM \"[plentiful appointment]\"\n2023-05-23 01:30PM-02:30PM \"[plentiful appointment]\"\n2023-05-24 01:30PM-02:30PM \"[plentiful appointment]\"\n2023-05-25 01:30PM-02:30PM \"[plentiful appointment]\"\n2023-05-30 01:30PM-02:30PM \"[plentiful appointment]\"\n2023-05-31 01:30PM-02:30PM \"[plentiful appointment]\"\n2023-06-01 01:30PM-02:30PM \"[plentiful appointment]\"\n2023-06-06 01:30PM-02:30PM \"[plentiful appointment]\"\n2023-06-07 01:30PM-02:30PM \"[plentiful appointment]\"\n2023-06-08 01:30PM-02:30PM \"[plentiful appointment]\"\n2023-06-13 01:30PM-02:30PM \"[plentiful appointment]\"\n2023-06-14 01:30PM-02:30PM \"[plentiful appointment]\"\n2023-06-15 01:30PM-02:30PM \"[plentiful appointment]\"\n2023-06-20 01:30PM-02:30PM \"[plentiful appointment]\"\n2023-06-21 01:30PM-02:30PM \"[plentiful appointment]\"\n2023-06-22 01:30PM-02:30PM \"[plentiful appointment]\"\n2023-06-27 01:30PM-02:30PM \"[plentiful appointment]\"\n2023-06-28 01:30PM-02:30PM \"[plentiful appointment]\"\n2023-06-29 01:30PM-02:30PM \"[plentiful appointment]\"\n2023-07-04 01:30PM-02:30PM \"[plentiful appointment]\"\n2023-07-05 01:30PM-02:30PM \"[plentiful appointment]\"\n2023-07-06 01:30PM-02:30PM \"[plentiful appointment]\"\n2023-07-11 01:30PM-02:30PM \"[plentiful appointment]\"\n2023-07-12 01:30PM-02:30PM \"[plentiful appointment]\"\n2023-07-13 01:30PM-02:30PM \"[plentiful appointment]\"\n2023-07-18 01:30PM-02:30PM \"[plentiful appointment]\"\n2023-07-19 01:30PM-02:30PM \"[plentiful appointment]\"\n2023-07-20 01:30PM-02:30PM \"[plentiful appointment]\"\n2023-07-25 01:30PM-02:30PM \"[plentiful appointment]\"\n2023-07-26 01:30PM-02:30PM \"[plentiful appointment]\"\n2023-07-27 01:30PM-02:30PM \"[plentiful appointment]\"\n2023-08-01 01:30PM-02:30PM \"[plentiful appointment]\"\n2023-08-02 01:30PM-02:30PM \"[plentiful appointment]\"\n2023-08-03 01:30PM-02:30PM \"[plentiful appointment]\"\n2023-08-08 01:30PM-02:30PM \"[plentiful appointment]\"\n2023-08-09 01:30PM-02:30PM \"[plentiful appointment]\"\n2023-08-10 01:30PM-02:30PM \"[plentiful appointment]\"","notes":"- Anyone is welcome, open-door policy\n- Meals prepared and delivered to people experiencing homelessness\n- ID is required via the Plentiful app"}},{"type":"Feature","geometry":{"type":"Point","coordinates":[-73.9393346,40.815423]},"properties":{"name":"Salvation Army, Harlem Temple Corps - Soup Kitchen","address":"540 Lenox Ave","zip":"10037","status":"open","city":"New York","state":"NY","hours":"Mo-Fr 11:00AM-12:30PM","notes":"- Open to everyone"}},{"type":"Feature","geometry":{"type":"Point","coordinates":[-73.965897,40.807135]},"properties":{"name":"Community Impact - Soup Kitchen","address":"601 W 114 St","zip":"10025","status":"open","city":"New York","state":"NY","hours":"2023-05-18 11:00AM-02:00PM\n2023-05-22 11:00AM-02:00PM\n2023-05-24 11:00AM-02:00PM\n2023-05-25 11:00AM-02:00PM\n2023-05-29 11:00AM-02:00PM\n2023-05-31 11:00AM-02:00PM\n2023-06-01 11:00AM-02:00PM\n2023-06-05 11:00AM-02:00PM\n2023-06-07 11:00AM-02:00PM\n2023-06-08 11:00AM-02:00PM\n2023-06-12 11:00AM-02:00PM\n2023-06-14 11:00AM-02:00PM\n2023-06-15 11:00AM-02:00PM\n2023-06-19 11:00AM-02:00PM\n2023-06-21 11:00AM-02:00PM\n2023-06-22 11:00AM-02:00PM\n2023-06-26 11:00AM-02:00PM\n2023-06-28 11:00AM-02:00PM\n2023-06-29 11:00AM-02:00PM\n2023-07-03 11:00AM-02:00PM\n2023-07-05 11:00AM-02:00PM\n2023-07-06 11:00AM-02:00PM\n2023-07-10 11:00AM-02:00PM\n2023-07-12 11:00AM-02:00PM\n2023-07-13 11:00AM-02:00PM\n2023-07-17 11:00AM-02:00PM\n2023-07-19 11:00AM-02:00PM\n2023-07-20 11:00AM-02:00PM\n2023-07-24 11:00AM-02:00PM\n2023-07-26 11:00AM-02:00PM\n2023-07-27 11:00AM-02:00PM\n2023-07-31 11:00AM-02:00PM\n2023-08-02 11:00AM-02:00PM\n2023-08-03 11:00AM-02:00PM\n2023-08-07 11:00AM-02:00PM\n2023-08-09 11:00AM-02:00PM\n2023-08-10 11:00AM-02:00PM\n2023-08-14 11:00AM-02:00PM","notes":"- Located in the basement\n- Dine in or grab & go options available\n- Serving until food runs out"}},{"type":"Feature","geometry":{"type":"Point","coordinates":[-73.9530033,40.7684929]},"properties":{"name":"Church of the Epiphany","address":"351 E 74th St","zip":"10021","status":"open","city":"New York","state":"NY","hours":"We 01:00PM-06:00PM\nSa 12:00PM-01:00PM","notes":"'- Serving grab-and-go meals\n- Senior program (60+) occurs on Saturdays from 12:00-1:00PM"}},{"type":"Feature","geometry":{"type":"Point","coordinates":[-73.9696485,40.7638946]},"properties":{"name":"Christ United Methodist Church","address":"524 Park Ave","zip":"10065","status":"open","city":"New York","state":"NY","hours":"Su 04:30AM-06:30PM","notes":"-   Serving grab-and-go meals"}},{"type":"Feature","geometry":{"type":"Point","coordinates":[-73.9810512,40.7757285]},"properties":{"name":"Christ and St. Stephen's Church - Brown Bag Program","address":"120 W 69th St","zip":"10023","status":"open","city":"New York","state":"NY","hours":"Mo-Fr 09:30AM-10:30AM","notes":"- Serving grab-and-go meals\n- Food donations: non-perishables preferred\n- Every MLK Day, hot lunches are served sit-down style"}},{"type":"Feature","geometry":{"type":"Point","coordinates":[-73.9581623,40.7753752]},"properties":{"name":"All Souls Church - Soup Kitchen","address":"1157 Lexington Ave","zip":"10075","status":"open","city":"New York","state":"NY","hours":"Mo 05:00PM-07:00PM \nFr 11:30AM-12:30PM ","notes":"-   Vegetarian meals offered"}},{"type":"Feature","geometry":{"type":"Point","coordinates":[-73.9549479,40.8039977]},"properties":{"name":"Food Bank for New York City - Community Kitchen","address":"252 W 116th St","zip":"10026","status":"open","city":"New York","state":"NY","hours":"Mo-Sa 11:00AM-02:00PM","notes":"- Open for visitors of all ages\n- Serving to-go meals only, pickup at the door \n- 2 meals per person"}},{"type":"Feature","geometry":{"type":"Point","coordinates":[-73.9289651,40.6903437]},"properties":{"name":"St. John's Bread & Life, Lexington - Soup Kitchen","address":"795 Lexington Ave","zip":"11221","status":"open","city":"Brooklyn","state":"NY","hours":"Mo-Th 10:00AM-11:45PM","notes":"- Serving breakfast and lunch grab-and-go bags from 9am-12pm"}},{"type":"Feature","geometry":{"type":"Point","coordinates":[-73.9172009,40.6894104]},"properties":{"name":"Salvation Army, Bushwick Corps - Soup Kitchen","address":"1151 Bushwick Ave","zip":"11221","status":"open","city":"Brooklyn","state":"NY","hours":"Mo,Tu,Th,Fr 12:30PM-02:00PM","notes":"- Serving to-go meals"}},{"type":"Feature","geometry":{"type":"Point","coordinates":[-73.9138412,40.6782875]},"properties":{"name":"Neighbors Together","address":"2094 Fulton St","zip":"11233","status":"open","city":"Brooklyn","state":"NY","hours":"Mo-Fr 12:00PM-02:00PM \nMo-Th 04:00PM-06:00PM ","notes":"- On Fridays, dinner served to-go during lunch service"}},{"type":"Feature","geometry":{"type":"Point","coordinates":[-73.9030525,40.6768847]},"properties":{"name":"Calvary UFW Baptist Church - Soup Kitchen","address":"1520-30 Herkimer St","zip":"11207","status":"unknown","city":"Brooklyn","state":"NY","hours":"Th 12:00PM-05:00PM","notes":"- Starts at 9AM and closes when food runs out"}},{"type":"Feature","geometry":{"type":"Point","coordinates":[-73.899279,40.8244929]},"properties":{"name":"Come World Ministries, Inc. - Soup Kitchen","address":"1034 Prospect Ave","zip":"10459","status":"unknown","city":"Bronx","state":"NY","hours":"Sa 12:00PM-02:00PM","notes":""}},{"type":"Feature","geometry":{"type":"Point","coordinates":[-73.899246,40.82217]},"properties":{"name":"Thessalonia Baptist Church - Soup Kitchen","address":"941 Rev James A Polite Ave","zip":"10459","status":"open","city":"Bronx","state":"NY","hours":"2023-05-23 10:00AM-11:30AM \"[plentiful appointment]\"\n2023-05-30 10:00AM-11:30AM \"[plentiful appointment]\"\n2023-06-06 10:00AM-11:30AM \"[plentiful appointment]\"\n2023-06-13 10:00AM-11:30AM \"[plentiful appointment]\"\n2023-06-20 10:00AM-11:30AM \"[plentiful appointment]\"\n2023-06-27 10:00AM-11:30AM \"[plentiful appointment]\"\n2023-07-04 10:00AM-11:30AM \"[plentiful appointment]\"\n2023-07-11 10:00AM-11:30AM \"[plentiful appointment]\"\n2023-07-18 10:00AM-11:30AM \"[plentiful appointment]\"\n2023-07-25 10:00AM-11:30AM \"[plentiful appointment]\"\n2023-08-01 10:00AM-11:30AM \"[plentiful appointment]\"\n2023-08-08 10:00AM-11:30AM \"[plentiful appointment]\"","notes":"- Every 4th Saturday; date is subject to change\n- Open to everyone"}},{"type":"Feature","geometry":{"type":"Point","coordinates":[-73.858994,40.885108]},"properties":{"name":"St. Luke's Senior and Community Program - Soup Kitchen","address":"777 E 222nd St","zip":"10467","status":"open","city":"Bronx","state":"NY","hours":"Mo-Fr 11:30AM-01:00PM ","notes":"- Located next to the church at 765 E 222nd St. \n- Food donations: only accepts canned goods. \n- Grab & go"}},{"type":"Feature","geometry":{"type":"Point","coordinates":[-73.9170144,40.8085413]},"properties":{"name":"St. Ann's Church of Morrisania - Soup Kitchen","address":"295 St Ann's Ave","zip":"10454","status":"open","city":"Bronx","state":"NY","hours":"Su 11:00AM-02:00PM","notes":"- Serving hot grab-and-go meals\n"}},{"type":"Feature","geometry":{"type":"Point","coordinates":[-73.860405,40.886368]},"properties":{"name":"Shiloh Temple Pentecostal Church - Soup Kitchen","address":"719 E 223rd St","zip":"10466","status":"closed","city":"Bronx","state":"NY","hours":"We 11:00AM-12:30PM","notes":""}}]}